name,lat,lon,O+,A+,B+,AB+,O-,A-,B-,AB-,expiry_dates
G.B. Pant Hospital Blood bank,11.675442,92.747338,6,6,3,2,4,5,3,4,"['2025-11-04', '2025-11-11']"
I.N.H.S. Dhanvantri,11.649693,92.717418,6,4,5,6,4,4,1,1,"['2025-10-28', '2025-11-09']"
Pillar Health Centre Blood Bank,11.653229,92.730714,3,4,6,6,5,1,2,1,"['2025-10-29', '2025-11-12']"
"Indian Red Cross Society Blood Bank, District Branch",14.654936,77.609915,6,3,2,3,4,6,5,2,"['2025-10-30', '2025-11-11']"
Government General Hospital Blood Bank,14.671459,77.596684,2,3,2,1,2,3,6,5,"['2025-10-29', '2025-11-12']"
Indian Red Cross Society,14.681888,77.600591,4,1,6,2,5,6,2,3,"['2025-10-30', '2025-11-12']"
Rural Development Trust Hospital Blood Bank,14.652907,77.618826,3,3,3,5,4,3,3,5,"['2025-11-05', '2025-11-14']"
South Central Railway Hospital Blood Bank,15.172889,77.366103,3,6,3,3,6,1,3,4,"['2025-11-03', '2025-11-21']"
Indian Red Cross Society Blood Bank,13.832533,77.492214,1,2,1,4,1,2,6,2,"['2025-11-05', '2025-11-11']"
Indian Red Cross Society Blood bank RCH -II KADIRI,14.113089,78.157366,2,4,2,3,3,5,5,4,"['2025-11-07', '2025-11-18']"
S.S.S.I.H.M.S. Blood Bank,14.151889,77.77685,1,3,5,5,4,4,2,5,"['2025-11-02', '2025-11-12']"
District Head Quarters Hospital Blood Bank. ,13.217176,79.100329,3,6,4,1,3,4,3,6,"['2025-10-26', '2025-11-13']"
Indian Red Cross Society,13.217176,79.100329,2,2,2,3,1,2,4,1,"['2025-11-03', '2025-11-12']"
M/s IRCS Blood Bank.,13.21698,79.100764,6,4,5,2,6,1,1,3,"['2025-11-04', '2025-11-12']"
M/s PESIMSR Blood Bank.,12.791223,78.363897,6,2,5,5,2,2,4,3,"['2025-10-30', '2025-11-10']"
Blood Bank AH Madanapalli,13.217176,79.100329,4,5,3,2,4,3,4,2,"['2025-10-27', '2025-11-12']"
"Indian Red Cross Society, Madanapalli RCH 2",13.556927,78.50085,4,5,3,3,1,4,4,5,"['2025-11-02', '2025-11-23']"
"Aswini Hospital Blood Bank, TTD",13.677292,79.3487,4,5,1,2,5,6,3,2,"['2025-11-03', '2025-11-22']"
SVRRGGH - Model Blood Bank,13.644382,79.407003,5,5,3,5,4,6,2,6,"['2025-11-03', '2025-11-15']"
Sri Venkateswara Institute of Medical sciences Blood Bank,13.637934,79.403917,4,3,6,6,3,1,6,6,"['2025-11-07', '2025-11-15']"
Govt Maternity Hospital Blood Bank,13.639418,79.409372,3,1,4,1,4,3,3,6,"['2025-11-06', '2025-11-09']"
 TTD Central Hospital Blood Bank,13.642148,79.421067,5,6,6,2,2,2,4,3,"['2025-10-27', '2025-11-21']"
S.V.S. Charitable Trust Blood Bank and Transfusion Centre,0.0,0.0,2,2,1,3,6,4,6,6,"['2025-10-27', '2025-11-19']"
Government Hospital,16.587432,82.008431,1,2,4,6,3,2,2,2,"['2025-11-04', '2025-11-17']"
"M/S. Kims & Research Foundation, Hospital Blood Bank",16.592169,82.024025,5,1,1,3,1,3,2,2,"['2025-10-26', '2025-11-20']"
M/s. A.P.V.V.P Area Hospital Blood Bank  ,16.575367,81.998101,4,4,5,6,4,3,5,3,"['2025-10-28', '2025-11-15']"
"M/s. Government General Hospital, Blood Bank.",16.955537,82.22748,2,2,1,3,5,3,1,5,"['2025-10-28', '2025-11-21']"
M/s. Indian Red Cross Society Blood Bank,16.989065,82.247465,1,3,4,3,5,4,5,1,"['2025-10-29', '2025-11-21']"
M/s. Rotary Blood Bank (Rotary Club Golden Jubilee Charitable Trust),0.0,0.0,1,1,6,6,3,4,2,2,"['2025-10-29', '2025-11-16']"
District Headquarters Hospital,17.019708,81.791631,5,5,5,1,2,4,4,4,"['2025-11-08', '2025-11-20']"
M/s. G. S. L. Medical College General Hospital Blood Bank,0.0,0.0,2,4,2,3,4,4,1,3,"['2025-11-08', '2025-11-09']"
"M/s. Swatantra Hospital,  Blood Bank",0.0,0.0,2,5,2,6,5,4,4,3,"['2025-10-28', '2025-11-21']"
M/S. Dhanwantari Voluntary Blood Bank.,17.00787,81.785213,6,1,4,2,4,5,5,3,"['2025-10-30', '2025-11-18']"
M/s. Government Area General Hospital Blood Bank.,17.354937,82.541241,2,6,5,2,5,4,6,1,"['2025-10-26', '2025-11-19']"
M/s. Sakthi Voluntary Blood Bank (Sakthi Association for Social Awarness),0.0,0.0,6,5,5,6,5,4,3,5,"['2025-11-07', '2025-11-21']"
Government General Hospital Blood Bank,16.299747,80.443689,6,4,4,1,4,2,4,6,"['2025-11-03', '2025-11-13']"
Indian Red Cross Society,16.306653,80.43654,2,6,6,2,5,3,6,4,"['2025-10-30', '2025-11-11']"
Indian Red Cross Society Blood Bank ,16.306653,80.43654,6,1,2,4,1,4,3,5,"['2025-10-26', '2025-11-12']"
Lions Club of Guntur Vision Blood Bank,0.0,0.0,5,5,4,5,6,6,2,6,"['2025-10-27', '2025-11-19']"
Padmavathi Day & Night Blood Bank,0.0,0.0,6,5,6,4,1,1,3,1,"['2025-11-03', '2025-11-18']"
M/s. Needs Blood Bank ,16.29882,80.448888,6,6,6,1,1,2,6,1,"['2025-11-06', '2025-11-11']"
M/s. Sri Lakshmi Maternity & Surgical Nursing Home Blood Bank ,0.0,0.0,4,4,4,2,6,6,6,1,"['2025-10-31', '2025-11-19']"
Saint Joseph General Hospital Blood Bank,16.297514,80.440648,2,4,5,6,1,4,3,3,"['2025-10-25', '2025-11-22']"
NTR Memorial Trust Blood Bank,0.0,0.0,3,2,3,6,5,6,2,6,"['2025-10-28', '2025-11-14']"
Katuri Medical College and Hospital Blood Bank ,16.227872,80.30947,3,5,2,3,4,3,4,2,"['2025-11-01', '2025-11-22']"
NRI Medical College and General Hospital Blood Bank,16.413675,80.555675,6,1,5,4,6,2,6,2,"['2025-11-07', '2025-11-23']"
Manipal Hospital Bloodbank,16.484433,80.617219,2,2,2,5,2,3,5,3,"['2025-11-03', '2025-11-21']"
Indian Red Cross Society Blood Bank. Narassraopet,16.235919,80.048412,4,1,5,5,2,1,4,2,"['2025-10-25', '2025-11-13']"
NRT Blood Bank,16.193331,80.019956,5,1,5,4,1,5,4,4,"['2025-10-28', '2025-11-16']"
Anjireddy Multi Specality Blood Bank ,16.478789,79.893642,2,2,4,3,5,3,4,3,"['2025-10-26', '2025-11-23']"
Red Cross Blood Bank,16.017425,80.829475,4,2,1,5,6,4,1,6,"['2025-10-31', '2025-11-21']"
Area Hospital (Repeated),16.239531,80.64934,5,3,1,4,4,6,4,1,"['2025-10-30', '2025-11-17']"
APVVP District Hospital Blood Bank,0.0,0.0,4,3,4,4,6,2,2,1,"['2025-10-26', '2025-11-22']"
Rudhira Voluntary Blood Bank,16.243428,80.646397,6,1,1,3,5,6,4,5,"['2025-11-03', '2025-11-15']"
Best Rotary Blood Bank,16.251179,80.64934,6,2,1,5,3,6,1,5,"['2025-11-02', '2025-11-17']"
Area Hospital Blood Bank,16.349045,81.049715,1,1,2,1,6,5,4,2,"['2025-11-07', '2025-11-11']"
Dr. Pattabhi Red Cross Blood Bank ,16.190546,81.136154,5,4,5,4,6,3,1,3,"['2025-11-04', '2025-11-23']"
Government General Hospital (Repeated),16.513339,80.618989,1,1,1,4,3,3,5,5,"['2025-10-29', '2025-11-12']"
Government District Headquarters Hospital machilipatnam blood bank,16.176867,81.138647,5,4,3,1,3,4,5,3,"['2025-10-25', '2025-11-10']"
Rotary Red Cross Blood Bank,16.506174,80.648015,5,4,4,4,3,5,4,3,"['2025-11-06', '2025-11-09']"
Vijaya Sri Blood Bank,16.51304,80.635644,6,2,2,2,6,2,1,4,"['2025-11-07', '2025-11-17']"
Lions Blood Bank,16.506174,80.648015,3,2,2,2,6,2,5,3,"['2025-11-02', '2025-11-21']"
University General Hospital Blood Bank,16.516111,80.670085,3,1,5,4,1,3,6,4,"['2025-10-31', '2025-11-10']"
M/s. Chaitanya Blood Bank,16.498839,80.655488,5,5,6,6,3,4,3,1,"['2025-10-27', '2025-11-14']"
Nagarjuna Hospital Blood Bank,0.0,0.0,4,4,4,2,5,3,2,2,"['2025-11-05', '2025-11-10']"
Saint Ann&#39;s Hospital Blood Bank  ,0.0,0.0,3,5,1,4,1,2,1,3,"['2025-10-27', '2025-11-17']"
Rotary Red Cross Blood Bank (Repeated),0.0,0.0,3,4,2,6,3,5,5,1,"['2025-10-26', '2025-11-11']"
Dr. Pinnamaneni Siddhartha Insitiute of Medical Sciences & Research Foundation (Dr.P.SIMS & RF) Blood Bank  ,16.551655,80.832047,5,5,2,1,4,5,2,1,"['2025-10-31', '2025-11-23']"
Bethesda Blood Bank,16.512971,80.632664,4,1,1,6,3,3,1,4,"['2025-11-07', '2025-11-11']"
"Smt CH. Manju Vani Vara Prasad, Lions District 316D Blood Bank ",16.510309,80.63251,3,4,5,2,4,1,5,2,"['2025-11-08', '2025-11-09']"
Suraksha Voluntary Blood Bank,16.51343,80.632861,2,3,2,2,2,3,4,1,"['2025-11-05', '2025-11-15']"
M/s Ayush Nri Lepl Health Care Private Limited  ,0.0,0.0,3,6,3,4,6,3,4,4,"['2025-11-04', '2025-11-09']"
M/s. Nimra Institute of Medical Sciences ,0.0,0.0,3,6,4,4,1,4,4,2,"['2025-10-29', '2025-11-18']"
"RCH -II Blood Bank, Area Hospital, Adoni",15.632223,77.272837,2,1,2,1,6,2,5,5,"['2025-11-06', '2025-11-21']"
M/s. Indian Red Cross Society Blood Bank RCH 2,15.632223,77.272837,3,5,5,3,3,4,3,3,"['2025-10-29', '2025-11-20']"
M/s. Government General Hospital Blood Bank,15.820654,78.038088,4,4,2,5,1,4,3,5,"['2025-10-31', '2025-11-18']"
M/s. Indian Red Cross Society Blood Bank,15.816357,78.040317,2,3,2,2,2,1,1,1,"['2025-10-26', '2025-11-10']"
M/s. Viswa Bharathi General Hospital Blood Bank,0.0,0.0,4,5,2,2,1,1,4,3,"['2025-11-01', '2025-11-23']"
M/s. Viswa Bharathi Blood Bank,0.0,0.0,5,4,6,4,5,4,4,3,"['2025-11-03', '2025-11-21']"
M/s. R.R. Hospital Blood Bank,15.82872,78.035743,5,2,4,1,1,1,1,5,"['2025-10-30', '2025-11-23']"
District Hospital Blood Bank ,15.469336,78.482935,3,1,6,2,2,6,4,2,"['2025-11-02', '2025-11-13']"
M/s. Shantiram Medical College & General Hospital Blood Bank,0.0,0.0,1,2,3,5,5,4,4,5,"['2025-10-25', '2025-11-21']"
Government Hospital Blood Bank,16.0833,78.8667,3,2,4,2,4,5,2,5,"['2025-11-07', '2025-11-17']"
M/s. Area Hospital Blood Bank,15.825971,80.36127,1,6,6,5,5,4,2,1,"['2025-11-04', '2025-11-17']"
Indian Red Cross Society Blood bank,15.736154,79.269125,1,5,5,4,4,5,1,6,"['2025-11-07', '2025-11-21']"
M/s. RIMS General Hospital Blood Bank,15.487882,80.047144,1,2,5,6,5,5,4,2,"['2025-10-31', '2025-11-09']"
Indian Red Cross Society Blood Bank,15.505723,80.049922,4,5,4,5,6,1,2,5,"['2025-10-26', '2025-11-19']"
M/s. Life Line Volunytary Blood Bank,15.481367,80.05908,3,2,1,5,1,5,4,3,"['2025-10-28', '2025-11-16']"
M/s. Belief Blood Bank,15.481367,80.05908,6,5,4,1,1,5,6,6,"['2025-11-01', '2025-11-20']"
Government Hospital Blood Bank,14.146545,79.848756,2,3,5,1,2,2,1,1,"['2025-10-26', '2025-11-21']"
M/s. Kanamarlapudi Koteswara Rao Indian Red Cross Society (IRCS) (REPEATED),0.0,0.0,5,1,4,4,4,3,3,2,"['2025-11-03', '2025-11-23']"
M/s. APVVP Area Hospital Blood Bank,0.0,0.0,6,1,3,6,2,5,6,2,"['2025-10-25', '2025-11-14']"
M/s. Kanamarlapudi Koteswara Rao Indian Red Cross Society Blood Bank,14.913181,79.99298,6,4,4,6,4,3,6,6,"['2025-11-06', '2025-11-12']"
Indian Red Cross Society Blood Bank,14.426777,79.959008,2,2,4,6,2,4,4,6,"['2025-11-08', '2025-11-16']"
District Headquarters Hospital (Repeated),14.435424,79.966831,1,6,1,6,1,2,6,2,"['2025-11-04', '2025-11-16']"
D.S.R. Headquarters Hospital Blood Bank,0.0,0.0,4,4,3,6,1,4,5,5,"['2025-10-26', '2025-11-16']"
Narayana Medical College & Hospital Blood Bank,14.442599,79.986456,3,4,2,1,5,3,6,6,"['2025-10-26', '2025-11-22']"
Gems Hospital Blood Bank,18.289087,83.9056,6,2,1,1,4,4,3,3,"['2025-10-25', '2025-11-12']"
GMR Varalakshmi Care Hospital Blood Bank,18.461272,83.658352,4,4,5,1,5,3,6,1,"['2025-10-31', '2025-11-23']"
Rajiv Gandhi Institute of Medical Sciences (RIMS) General Hospital Blood Bank,18.312884,83.887717,6,5,3,4,4,2,5,1,"['2025-10-30', '2025-11-11']"
Indian Red Cross Society (IRCS) Blood Bank,18.296359,83.894549,3,1,5,5,1,5,1,3,"['2025-11-03', '2025-11-18']"
District Hospital,17.689592,82.997733,1,2,3,4,5,5,2,4,"['2025-11-07', '2025-11-13']"
M/s. NTR Area Hospital Blood Bank,17.686427,83.218576,6,4,2,2,3,2,6,6,"['2025-11-03', '2025-11-17']"
M/s. Visakha Steel General Hospital Blood Bank,17.662908,83.144127,1,3,5,4,3,6,6,5,"['2025-10-30', '2025-11-13']"
M/s. INHS Kalyani Blood Bank,0.0,0.0,5,3,1,3,6,3,4,4,"['2025-11-07', '2025-11-23']"
M/s. Anil Neerukonda Hospital  Blood Bank,17.97256,83.432338,4,2,3,2,6,3,2,4,"['2025-11-01', '2025-11-21']"
M/s. King George Hospital (KGH) Blood Bank ,17.70667,83.303737,2,6,5,4,1,3,2,4,"['2025-10-31', '2025-11-20']"
M/s. Government Victoria Hospital Blood Bank,17.686816,83.218482,3,1,5,3,6,3,1,3,"['2025-10-30', '2025-11-15']"
M/s. Indian Red Cross Society Blood Bank ,17.686816,83.218482,6,4,4,6,3,2,6,2,"['2025-10-25', '2025-11-11']"
M/s. Rotary Blood Bank (Vishaka Port City Rotary Charitable Trust),17.686816,83.218482,6,6,2,1,5,5,3,4,"['2025-11-04', '2025-11-13']"
M/s. Apollo Hospital Heart & Kidney Centre Blood Bank,17.717084,83.309208,3,1,3,2,6,1,6,3,"['2025-10-28', '2025-11-11']"
M/s. Seven Hills Hospital Blood Bank,17.71737,83.309268,2,5,5,5,6,4,3,4,"['2025-11-05', '2025-11-10']"
 A. S. Raja Voluntary Blood Bank,17.720274,83.313048,1,3,4,4,2,2,1,3,"['2025-11-02', '2025-11-18']"
M/s. Lions Club of Visakhapatnam Blod Bank Trust  ,17.719063,83.311286,3,3,5,3,6,5,4,3,"['2025-11-07', '2025-11-13']"
M/s. N.T.R. Memorial Trust Blood Bank ,17.691575,83.238891,3,1,2,5,6,5,3,3,"['2025-11-04', '2025-11-21']"
M/s. Gitam Institute of Medical Sciences and Research Blood Bank ,17.784938,83.374975,5,4,6,3,5,6,3,6,"['2025-10-29', '2025-11-22']"
M/s. Gayatri Vidya Parishad Institute of Health Care and Medical Technology,17.689433,83.211615,3,5,2,6,1,4,6,6,"['2025-11-01', '2025-11-18']"
"Indian Red Cross Society Blood Bank, RCH-II",18.781716,83.426752,4,3,5,2,5,1,3,4,"['2025-11-04', '2025-11-12']"
District Headquarters Hospital Blood Bank,18.110022,83.388433,5,2,6,2,6,2,3,3,"['2025-11-03', '2025-11-14']"
Indian Red Cross Society Blood Bank,18.106658,83.395551,2,3,5,3,5,3,6,2,"['2025-10-30', '2025-11-15']"
Srinivasa Nursing Home Blood Bank ,0.0,0.0,1,4,5,1,3,6,5,4,"['2025-11-03', '2025-11-09']"
Maharaja Institute of Medical Sciences Blood Bank,0.0,0.0,5,6,1,5,3,6,5,1,"['2025-10-27', '2025-11-23']"
ASN Raju Charitable Trust Blood Bank,16.54391,81.516237,2,3,6,5,2,5,2,2,"['2025-10-26', '2025-11-18']"
Uddaraju Anandaraju Foundation Blood Bank,16.543064,81.515731,2,4,5,1,5,6,5,5,"['2025-10-30', '2025-11-10']"
M/s. Government Headquarters Hospital Blood Bank,17.006153,81.782132,2,4,6,1,3,4,5,6,"['2025-10-29', '2025-11-11']"
M/s. Indian Red Cross Society Component Blood Bank,16.711919,81.094839,2,4,2,4,4,5,6,3,"['2025-11-07', '2025-11-13']"
M/s. Alluri Sitrarama Raju Academy of Medical Sciences Blood Bank,16.737395,81.146494,1,5,4,1,2,5,5,1,"['2025-10-29', '2025-11-13']"
M/s. Good Samaritan Blood Bank,18.179738,83.39551,6,6,2,6,3,2,5,6,"['2025-11-05', '2025-11-10']"
M/s. Indian Red Cross Society Blood Bank jangareddi gudem,17.125307,81.273907,6,2,2,4,1,4,1,2,"['2025-11-04', '2025-11-13']"
Indian Red Cross Society Blood Bank narasapuram,16.45196,81.680205,1,1,1,2,5,1,1,5,"['2025-10-31', '2025-11-22']"
Palakol Voluntary Blood Bank,16.517455,81.725342,2,2,4,6,4,4,5,2,"['2025-11-01', '2025-11-14']"
Indian Red Cross Society Blood Bank Tanuku  (Repeated),16.757173,81.679963,3,5,4,4,3,5,3,2,"['2025-10-31', '2025-11-19']"
Dr. Mulla Pudi Harischandra Prasad Red Cross Blood Bank,16.757173,81.679963,3,1,1,5,2,2,3,4,"['2025-11-04', '2025-11-16']"
Sri Buddala Narasimhamurty Voluntary Blood Bank,16.414033,80.647085,6,5,6,6,3,3,2,1,"['2025-11-06', '2025-11-21']"
Rajiv Gandhi Institute of Medical Sciences Blood Bank,15.133392,78.514102,3,1,6,3,1,2,1,6,"['2025-10-29', '2025-11-12']"
"Indian Red Cross Society, Blood Bank",14.467354,78.824134,3,2,6,4,5,2,5,6,"['2025-10-26', '2025-11-10']"
Boga Parvathamma Blood Bank ,14.467354,78.824134,4,5,2,5,4,2,2,2,"['2025-11-04', '2025-11-19']"
Rajiv Gandhi Institute of Medical Sciences Blood Bank ,0.0,0.0,6,2,1,6,2,4,6,5,"['2025-11-01', '2025-11-21']"
Fathima Institute of Medical Sciences Blood Bank,0.0,0.0,6,2,4,6,6,2,3,2,"['2025-11-07', '2025-11-15']"
District Hospital Blood Bank ,14.741621,78.550959,2,3,3,6,5,6,4,5,"['2025-10-31', '2025-11-23']"
A.P Vaidyavidhanaparishad Area Hospital Blood Bank,0.0,0.0,1,5,2,3,1,6,5,5,"['2025-10-31', '2025-11-19']"
A.P. Vaidyavidhanaparishad Area Hospital - IRCS Blood Bank ,14.422232,78.226339,6,1,2,3,6,1,2,1,"['2025-11-07', '2025-11-17']"
Changlang District Hospital Blood Bank,27.139258,95.738757,2,4,6,1,1,1,3,2,"['2025-10-28', '2025-11-12']"
Pasighat General Hospital Blood Bank,28.071544,95.325113,6,5,6,6,6,6,5,1,"['2025-10-28', '2025-11-19']"
Lohit District Hospital Blood Bank,27.559574,96.101627,6,3,6,1,3,3,1,3,"['2025-11-05', '2025-11-10']"
General Hospital Ziro  Blood Bank,27.53875,93.822176,4,1,1,5,5,6,1,2,"['2025-10-31', '2025-11-18']"
Ramakrishna Mission Hospital Blood bank,27.086178,93.609065,1,1,5,5,2,4,4,4,"['2025-11-04', '2025-11-14']"
Arunachal State Hospital Blood Bank,27.103121,93.691936,1,3,5,5,3,5,1,5,"['2025-11-05', '2025-11-11']"
Tawang District Hospital Blood Bank,27.588943,91.864896,2,1,3,2,1,1,2,2,"['2025-10-31', '2025-11-10']"
Tawang District Hospital Blood Bank ,0.0,0.0,3,5,1,4,3,3,3,1,"['2025-11-02', '2025-11-18']"
District Hospital Blood Bank,0.0,0.0,3,1,1,6,6,6,4,3,"['2025-11-06', '2025-11-11']"
Upper Siang District Hospital Blood Bank,28.641662,95.025348,3,4,6,3,3,3,1,3,"['2025-11-06', '2025-11-22']"
Upper Subansiri District Hospital Blood Bank,27.981329,94.217428,6,1,3,3,6,1,2,6,"['2025-10-26', '2025-11-23']"
West Siang District Hospital Blood Bank,28.169282,94.801031,6,1,5,5,6,3,6,2,"['2025-10-27', '2025-11-20']"
Fakhruddin Ali Ahmed (FAA) Medical College Hospital Blood Bank,26.323792,90.986661,3,4,2,6,2,5,5,4,"['2025-10-26', '2025-11-21']"
Bongaigaon Civil Hospital Blood Bank,26.456671,90.560234,6,1,5,2,4,4,5,4,"['2025-11-01', '2025-11-11']"
Lower Assam Hospital Blood Bank,26.492861,90.551479,4,5,3,5,5,1,3,2,"['2025-10-28', '2025-11-12']"
Silchar Medical College and Hospital Blood Bank,24.775578,92.794251,6,5,1,4,4,4,1,5,"['2025-11-07', '2025-11-20']"
Indian Red Cross Children Hospital Blood Bank,24.826127,92.796159,1,2,2,3,4,2,2,2,"['2025-11-04', '2025-11-19']"
Barak Blood Bank and Clinical Research Centre,24.808015,92.795242,5,5,6,5,2,4,3,4,"['2025-11-08', '2025-11-11']"
Bongaigaon Refinery (BRPL) Hospital Blood Bank ,26.510577,90.522683,2,3,2,1,6,5,4,4,"['2025-10-27', '2025-11-20']"
Mangaldoi Civil Hospital Blood Bank,26.437551,92.036395,1,2,1,1,2,1,2,3,"['2025-11-06', '2025-11-19']"
Dhemaji Civil Hospital Blood Bank,27.458026,94.574533,4,1,4,5,5,3,2,5,"['2025-11-08', '2025-11-16']"
Dhubri Civil Hospital Blood Bank,26.034365,89.963554,1,6,4,3,4,2,4,4,"['2025-11-04', '2025-11-23']"
Assam Medical College and Hospital Blood Bank,27.486985,94.944179,2,6,4,6,6,5,4,1,"['2025-11-04', '2025-11-19']"
Dr. Damani&#39;s Nursing Home Blood Bank,27.4898858,94.9229632,1,2,6,6,5,1,5,6,"['2025-11-02', '2025-11-16']"
Aditya Diagnostic Hospital Blood Bank,27.491383,94.931116,6,4,5,4,2,2,1,3,"['2025-11-05', '2025-11-12']"
Sri Manta Sankardeva Hospital and Research Centre Blood Bank,0.0,0.0,5,6,2,1,6,2,2,5,"['2025-11-07', '2025-11-11']"
Dirial Central Hospital Blood Bank,0.0,0.0,1,6,5,6,3,6,4,2,"['2025-11-05', '2025-11-10']"
Oil India Limited Hospital Blood Bank,27.359192,95.323648,6,5,3,4,3,3,5,6,"['2025-11-04', '2025-11-23']"
Haflong Civil Hospital Blood Bank ,25.165653,93.024831,1,6,3,1,1,2,5,5,"['2025-11-06', '2025-11-23']"
Goalpara Civil Hospital Blood Bank,26.142267,90.610584,3,4,2,3,1,3,4,3,"['2025-10-29', '2025-11-19']"
Solace Hospital and Research centre Pvt.Ltd Blood bank,26.164643,90.624877,1,6,5,1,2,1,4,5,"['2025-11-07', '2025-11-11']"
Kushal Konwar (KK) Civil Hospital Blood Bank,26.510171,93.964569,6,3,1,6,3,5,3,4,"['2025-11-05', '2025-11-23']"
Vivekananda Kendra NRL Hospital Blood Bank,26.591371,93.749516,3,4,4,6,4,6,1,2,"['2025-10-29', '2025-11-18']"
S. K. Roy Civil Hospital Blood Bank ,24.671769,92.563355,5,6,4,3,4,5,2,6,"['2025-10-28', '2025-11-18']"
Jorhat Medical College and Hospital Blood Bank ,26.742573,94.195109,1,5,4,4,3,3,3,4,"['2025-11-01', '2025-11-17']"
Air Force Hospital Blood Bank,0.0,0.0,2,2,3,1,3,1,4,1,"['2025-11-01', '2025-11-16']"
Greater Jorhat Lions Blood Bank,26.753059,94.185964,3,5,4,6,1,2,2,3,"['2025-10-26', '2025-11-14']"
Mahendra Mohan Choudhury (MMC) Hospital  Blood Bank,26.185505,91.740485,4,2,4,3,4,1,4,3,"['2025-11-04', '2025-11-13']"
Dispur Blood Bank,26.149823,91.786638,1,4,5,4,5,2,1,1,"['2025-10-25', '2025-11-16']"
Saharia&#39;s Path Lab & Blood Bank,26.16274,91.770664,6,2,2,4,1,4,3,5,"['2025-11-03', '2025-11-23']"
International Hospital Blood Bank,26.154059,91.781267,2,6,3,3,1,6,2,1,"['2025-10-31', '2025-11-10']"
Hayat Hospital Blood Bank,26.139171,91.746199,4,6,3,6,2,2,1,5,"['2025-10-29', '2025-11-22']"
Rahman Hospital Private Limited Blood Bank,26.135133,91.809429,5,2,6,1,2,2,4,1,"['2025-10-25', '2025-11-21']"
GNRC Institute of Medical Sciences Blood bank,26.202192,91.693312,2,4,5,5,6,5,3,5,"['2025-10-29', '2025-11-22']"
Central Hospital N. F. Railway Blood Bank,26.151872,91.694899,1,2,4,2,3,5,2,2,"['2025-10-28', '2025-11-13']"
G.N.R.C. Hospital Blood Bank,26.1391,91.794024,6,2,1,2,2,2,1,3,"['2025-11-03', '2025-11-16']"
Guwahati Medical College and Hospital (GMCH) State of The Art Model Blood Bank,26.159914,91.768498,5,6,2,4,5,3,6,4,"['2025-11-07', '2025-11-09']"
Dr. B. Borooah Cancer Institute Blood Bank,26.165087,91.747674,6,6,5,6,4,4,1,2,"['2025-11-05', '2025-11-18']"
Assam Gujarat Voluntary Blood Bank and Research Centre,26.176689,91.753784,5,2,5,4,2,4,4,3,"['2025-11-02', '2025-11-19']"
Down Town Hospital Blood Bank ,26.136151,91.796833,1,4,4,3,3,3,2,5,"['2025-11-08', '2025-11-20']"
Ganga Hospital Blood Bank,26.172081,91.759992,6,4,1,1,5,1,5,3,"['2025-10-27', '2025-11-14']"
 Surakhya  Blood Bank ,26.175065,91.75257,1,2,6,5,1,2,4,5,"['2025-11-05', '2025-11-22']"
Marwari Hospital and Research Centre Blood Bank,26.172012,91.740106,1,3,4,5,3,2,2,2,"['2025-11-03', '2025-11-16']"
151 Base Hospital Blood Bank,26.104222,91.796169,4,5,5,5,1,4,5,1,"['2025-10-25', '2025-11-09']"
Sanjevani Hospital Blood Bank,26.161206,91.70941,3,4,4,3,3,1,4,1,"['2025-10-27', '2025-11-23']"
Narayana Hrudayalaya Limited Blood Bank,26.20775,91.678242,4,5,5,5,3,5,4,1,"['2025-10-30', '2025-11-10']"
Diphu Civil Hospital Blood Bank,25.844281,93.433805,5,5,5,5,3,3,3,3,"['2025-11-01', '2025-11-19']"
Karimganj Civil Hospital Blood Bank,24.867595,92.361806,5,4,5,4,3,6,1,2,"['2025-10-31', '2025-11-18']"
R.N.B. Civil Hospital Blood Bank,26.452881,89.976397,3,2,2,6,2,6,4,1,"['2025-10-26', '2025-11-17']"
North Lakhimpur Civil Hospital Blood Bank,27.242685,94.106483,2,2,6,1,3,2,2,2,"['2025-10-26', '2025-11-19']"
Morigaon Civil Hospital Blood Bank,26.251646,92.354523,5,2,2,4,6,4,2,3,"['2025-11-06', '2025-11-20']"
Haji Abdul Majid Memorial Hospital and Research Centre Blood Bank,26.015994,92.868186,4,3,5,4,1,4,2,2,"['2025-10-27', '2025-11-22']"
Divisional Railway Headquarters Hospital Blood Bank,0.0,0.0,5,5,6,6,5,4,1,1,"['2025-11-04', '2025-11-23']"
B.P. Civil Hospital Blood Bank,26.344942,92.689464,5,2,6,2,6,2,1,2,"['2025-10-29', '2025-11-19']"
North East Blood Bank and Research Centre,26.344263,92.680991,2,1,5,4,2,5,3,3,"['2025-10-25', '2025-11-15']"
S. M. K. Civil Hospital Blood Bank ,26.448222,91.435618,2,4,2,2,3,1,4,6,"['2025-11-06', '2025-11-21']"
Nalbari Maternity Hospital Blood Bank,26.440614,91.43584,4,5,5,4,6,6,4,2,"['2025-10-25', '2025-11-15']"
O.N.G.C. Limited Hospital Blood Bank,26.981201,94.651794,4,2,1,3,2,6,1,2,"['2025-11-06', '2025-11-14']"
Pragati Hospital and Research Centre Blood Bank,26.997865,94.61976,3,2,1,4,6,2,1,1,"['2025-10-30', '2025-11-12']"
Sivasagar Civil Hospital Blood Bank,26.955222,94.611106,2,3,6,6,2,6,3,5,"['2025-10-26', '2025-11-15']"
Catholic Hospital Blood Bank,26.815339,93.320185,3,1,1,2,2,3,1,1,"['2025-11-06', '2025-11-17']"
Kanaklata Civil Hospital Blood Bank,26.628524,92.796499,5,2,2,6,3,3,1,1,"['2025-11-02', '2025-11-12']"
155 Base Hospital Blood Bank,26.655397,92.787317,1,2,4,3,4,2,5,5,"['2025-11-07', '2025-11-19']"
Tezpur Medical College Hospital Blood Bank ,26.680968,92.653349,4,1,6,4,3,3,3,6,"['2025-10-29', '2025-11-11']"
Indian Oil Corp Ltd (AOD) Hospital blood bank,27.39287,95.62943,2,4,5,5,3,1,4,5,"['2025-11-07', '2025-11-11']"
Central Hospital  Coal India Limited,27.289292,95.674768,5,1,6,3,4,6,3,6,"['2025-10-27', '2025-11-23']"
Tinsukia Civil Hospital Blood Bank,27.498632,95.358861,6,4,5,4,6,4,1,6,"['2025-11-07', '2025-11-20']"
Tinsukia Blood Bank,27.490438,95.363017,6,4,2,4,6,3,1,1,"['2025-10-31', '2025-11-14']"
Sadar Hospital Aurangabad Blood Bank,0.0,0.0,1,2,3,6,3,4,2,4,"['2025-10-28', '2025-11-10']"
Meera Nursing Home Blood Bank and Research Centre,0.0,0.0,1,1,4,1,6,6,1,3,"['2025-10-27', '2025-11-14']"
Rastra Kavi Dinkar Blood Bank,25.4138,86.13596,3,4,2,3,5,5,4,5,"['2025-11-07', '2025-11-22']"
Deshratna Rajendra Prasad Memorial Rotary Blood Bank,0.0,0.0,4,1,2,4,4,6,1,6,"['2025-10-28', '2025-11-14']"
Jawaharlal Nehru Medical College Hospital (JNMCH) Blood Bank,25.264217,87.002126,5,4,6,2,2,1,1,2,"['2025-11-07', '2025-11-22']"
Sadar Hospital Ara (Bhojpur) Blood bank,25.559755,84.667554,5,4,2,2,4,1,1,2,"['2025-10-27', '2025-11-13']"
Sadar Hospital Ara Blood Bank,25.558506,84.670631,4,4,3,2,4,3,5,4,"['2025-11-03', '2025-11-18']"
Maa Vindhyawasini Blood Bank ,25.539954,87.56747,3,5,3,5,2,4,4,6,"['2025-11-07', '2025-11-16']"
Indian Red Cross Blood Bank (IRCS) Blood Bank,25.559303,84.661958,1,1,6,5,3,6,1,3,"['2025-11-08', '2025-11-17']"
Sadar Hospital Buxar Blood Bank,25.56471,83.977748,6,3,5,4,2,3,3,6,"['2025-11-02', '2025-11-23']"
Darbhanga Medical College and Hospital (DMCH) Regional Blood Bank,26.133426,85.898943,1,1,4,4,2,2,1,5,"['2025-11-08', '2025-11-23']"
"Indian Red Cross Society Blood Bank, Motihari",26.647477,84.910299,4,3,3,5,2,6,6,3,"['2025-10-25', '2025-11-11']"
Duncan Hospital Blood Bank,0.0,0.0,2,4,4,3,3,6,3,2,"['2025-10-31', '2025-11-19']"
Anugrah Narayan Memorial Magadh Medical College Hospital (ANMMCH) Blood Bank,24.771176,84.960302,3,3,1,4,2,4,4,4,"['2025-11-08', '2025-11-10']"
Bhagwan Mahabir Blood Bank,0.0,0.0,1,2,6,6,4,6,1,1,"['2025-10-29', '2025-11-10']"
" Sadar Hospital, Gopalganj Blood Bank",26.460762,84.441119,1,5,3,1,6,4,6,5,"['2025-10-30', '2025-11-16']"
Sadar Hospital Jamui Blood Bank,25.20523,85.514552,1,2,6,5,6,5,4,3,"['2025-11-06', '2025-11-22']"
"Amar Saheed Jagdeo Prasad, Sadar Hospital Jehanabad Blood Bank ",40.267194,86.134902,5,6,1,1,5,3,3,4,"['2025-11-04', '2025-11-15']"
Sadar Hospital Kaimur (Bhabua) Blood Bank ,25.039579,83.607736,4,1,3,1,4,4,5,4,"['2025-10-25', '2025-11-21']"
Katihar Medical College Blood Bank,0.0,0.0,3,6,2,5,4,5,1,2,"['2025-11-06', '2025-11-15']"
"Sadar Hospital, Katihar Blood bank",25.539923,87.567583,6,2,5,1,2,3,3,2,"['2025-10-27', '2025-11-23']"
Sadar Hospital Khagaria Blood Bank ,25.50788,86.474581,3,6,1,6,1,5,2,1,"['2025-11-01', '2025-11-14']"
Mata Gujri Memorial Medical College & Lions Kenra Hospital Blood Bank ,0.0,0.0,5,3,1,2,4,1,6,1,"['2025-10-25', '2025-11-15']"
Mata Gujri Memorial (MGM) Blood Bank,0.0,0.0,5,2,2,1,2,5,5,3,"['2025-10-28', '2025-11-21']"
Sadar Hospital Kishanganj Blood Bank ,26.101776,87.948834,3,2,6,2,2,5,1,6,"['2025-10-25', '2025-11-09']"
Sadar Hospital Lakhisarai Blood Bank ,0.0,0.0,6,3,6,5,5,1,3,5,"['2025-10-27', '2025-11-21']"
Sadar Hospital Madhepura Blood Bank ,25.922909,86.792226,5,2,4,6,6,2,5,3,"['2025-11-08', '2025-11-19']"
Sadar Hospital Madhubani Blood Bank,0.0,0.0,3,1,3,3,6,3,5,1,"['2025-11-02', '2025-11-21']"
Sadar Hospital Muzaffarpur Blood Bank,0.0,0.0,1,6,3,5,6,1,1,6,"['2025-10-26', '2025-11-22']"
Sinha Blood Bank Muzaffarpur,0.0,0.0,4,5,5,4,1,4,6,6,"['2025-10-28', '2025-11-13']"
Sri Krishna Medical College Hospital (SKMCH) Blood Bank ,26.167644,85.392082,6,1,1,3,5,6,2,2,"['2025-10-28', '2025-11-11']"
Krishna Devi Devi Prasad Kejriwal Maternity Hospital Blood bank,0.0,0.0,2,3,5,1,1,1,3,2,"['2025-11-06', '2025-11-10']"
Sadar Hospital Muzaffarpur Blood Bank,26.122253,85.382562,2,4,2,4,4,1,3,1,"['2025-11-03', '2025-11-17']"
Nalanda Blood Bank (A Unit of Janata Karah Kalyan Samaj),0.0,0.0,4,3,5,3,6,6,2,6,"['2025-10-28', '2025-11-11']"
"Red Cross Blood Bank, Sadar Hospital, Bihar Sharif",25.20523,85.514552,3,3,4,2,6,5,1,4,"['2025-10-30', '2025-11-10']"
Sadar Hospital Nawada Blood Bank ,0.0,0.0,5,2,5,6,6,2,5,3,"['2025-10-30', '2025-11-09']"
 Hitech Emergency Hospital Blood Bank ,0.0,0.0,5,4,1,2,5,3,2,6,"['2025-11-08', '2025-11-19']"
Bharat Blood Bank,0.0,0.0,3,6,1,3,6,1,5,3,"['2025-11-01', '2025-11-21']"
Kurji Holy Family Hospital Blood Bank,0.0,0.0,5,5,6,5,2,4,3,5,"['2025-11-06', '2025-11-19']"
National Blood Bank & Resarch Center,0.0,0.0,1,3,2,3,3,5,3,4,"['2025-11-06', '2025-11-17']"
Nalanda Medical College and Hospital Blood Bank,25.594095,85.137565,4,1,2,5,2,6,5,6,"['2025-11-02', '2025-11-11']"
Military Hospital Blood Bank,0.0,0.0,3,3,6,1,5,1,5,3,"['2025-11-05', '2025-11-22']"
Lions Mahavir Cancer Sansthan Blood Bank,0.0,0.0,4,6,1,5,4,1,3,4,"['2025-11-05', '2025-11-17']"
Tripolia Social Service Hospital and Blood Bank,0.0,0.0,5,4,6,1,6,1,4,5,"['2025-11-06', '2025-11-17']"
Shashi Blood Bank,0.0,0.0,5,5,4,1,6,6,5,6,"['2025-11-04', '2025-11-11']"
Patliputra Blood Bank,0.0,0.0,6,3,2,3,4,1,1,3,"['2025-11-06', '2025-11-15']"
Bihar State Patna Medical College and Hospital (PMCH) Blood Bank,25.619794,85.158851,5,6,6,4,3,2,2,2,"['2025-10-27', '2025-11-21']"
Indian Red Cross Society (IRCS) Patna Blood Bank,25.619909,85.145263,4,3,3,5,2,6,1,1,"['2025-10-26', '2025-11-22']"
Jaiprabha Hospital Model Blood Bank (MBB),25.60017,85.152281,1,3,3,3,6,4,4,3,"['2025-10-28', '2025-11-18']"
Palm View Hospital Blood Bank,0.0,0.0,6,2,3,5,2,3,1,5,"['2025-11-06', '2025-11-20']"
Lions Jeewan Blood Bank ,0.0,0.0,5,1,2,5,3,5,6,6,"['2025-11-05', '2025-11-09']"
Paras HMRI Hospital Blood Bank,0.0,0.0,5,6,3,4,5,6,4,6,"['2025-10-30', '2025-11-19']"
Indira Gandhi Institute of Medical Sciences (IGIMS) Blood Bank ,25.611687,85.089567,1,6,4,5,1,1,4,3,"['2025-11-04', '2025-11-14']"
Life Line Blood Bank,0.0,0.0,2,5,1,6,2,6,5,2,"['2025-10-25', '2025-11-18']"
 Vaatsalya Blood Bank,0.0,0.0,6,4,1,3,4,5,1,4,"['2025-11-08', '2025-11-12']"
Paras Hmri Hospital Blood Bank,0.0,0.0,2,4,4,1,6,3,6,2,"['2025-10-29', '2025-11-10']"
Ruban Memorial Hospital Blood Bank,0.0,0.0,2,2,1,4,4,1,4,5,"['2025-11-04', '2025-11-20']"
Jeevan Rekha Blood Bank,0.0,0.0,3,5,1,1,5,4,1,4,"['2025-11-05', '2025-11-11']"
Indian Red Cross Society (IRCS) Blood Bank,25.785486,87.488251,6,4,5,4,1,5,3,1,"['2025-11-01', '2025-11-14']"
Sadar Hospital Purnia  Blood Bank ,25.778234,87.472456,3,6,2,6,5,3,4,5,"['2025-11-06', '2025-11-14']"
Bose Clinic Blood Bank,0.0,0.0,5,5,2,1,6,2,2,4,"['2025-11-08', '2025-11-15']"
Sadar Hospital Sasaram Blood Bank,24.952782,84.013897,1,1,5,2,6,1,4,3,"['2025-11-05', '2025-11-16']"
Narayana Medical College and Hospital Blood Bank,0.0,0.0,6,6,1,1,1,1,1,6,"['2025-10-25', '2025-11-10']"
Micro Blood Bank Sasaram,0.0,0.0,4,6,3,1,3,5,5,3,"['2025-11-07', '2025-11-17']"
Sadar Hospital Saharsa Blood Bank ,25.88715,86.590953,2,1,5,4,5,5,1,1,"['2025-10-26', '2025-11-11']"
Indian Red Cross Society (IRCS) Samastipur Blood Bank ,0.0,0.0,5,3,2,5,3,1,2,2,"['2025-10-30', '2025-11-13']"
Sadar Hospital Samastipur Blood Bank ,25.857206,85.778507,2,3,6,1,4,2,3,5,"['2025-11-05', '2025-11-20']"
Sadar Hospital Chhapra Blood Bank ,25.781723,84.73066,5,2,5,5,2,4,1,5,"['2025-11-04', '2025-11-19']"
Sadar Hospital Sheikhpura Blood Bank,25.133195,85.841424,3,1,4,2,6,5,4,3,"['2025-11-04', '2025-11-09']"
Sadar Hospital Sitamarhi Blood Bank,26.596243,85.494747,5,4,2,5,2,2,4,5,"['2025-11-05', '2025-11-10']"
 Sadar Hospital Siwan Blood Bank,26.226162,84.361845,4,6,6,6,3,3,4,5,"['2025-11-01', '2025-11-19']"
P.N.H Mahatma Budh Educational and Research Centre Blood Bank ,0.0,0.0,5,6,4,6,6,4,2,6,"['2025-11-08', '2025-11-14']"
Sadar Hospital Hajipur Blood Bank ,25.690268,85.208265,6,2,3,2,4,6,1,3,"['2025-11-03', '2025-11-19']"
Maharani Janki Kunwar (MJK) Hospital Blood Bank,26.796929,84.500903,4,3,5,6,3,6,4,4,"['2025-10-27', '2025-11-17']"
"Department of  Transfusion Medicine, PGIMER Blood Bank",30.765913,76.775488,5,1,1,5,3,2,5,3,"['2025-11-05', '2025-11-09']"
Rotary and Blood Bank Society Resource Centre,30.74211,76.755138,1,6,2,6,3,1,6,6,"['2025-11-02', '2025-11-09']"
Government Medical College and Hospital Blood Bank ,30.709289,76.780536,2,4,3,5,3,1,1,5,"['2025-10-25', '2025-11-14']"
Government Multispeciality Hospital Blood Bank,30.751021,76.780967,4,4,6,6,4,5,3,1,"['2025-11-01', '2025-11-13']"
District Hospital Blood Bank Baloda Bazar,0.0,0.0,2,1,5,2,3,4,3,4,"['2025-10-25', '2025-11-12']"
Maharani Hospital Blood Bank ,19.085071,82.023963,3,3,4,5,3,5,3,5,"['2025-11-06', '2025-11-18']"
District Hospital Blood Bank Bemetara,0.0,0.0,1,2,5,4,6,2,1,4,"['2025-11-05', '2025-11-18']"
District Hospital Blood Bank Bijapur,0.0,0.0,2,6,4,1,1,6,4,1,"['2025-10-29', '2025-11-14']"
Chhattisgarh Insititute of Medical Sciences (CIMS) Blood Bank ,22.087621,82.152265,1,6,3,3,5,2,4,2,"['2025-10-31', '2025-11-19']"
Bilaspur District Hospital Blood Bank ,22.074225,82.158399,3,2,3,5,2,1,5,5,"['2025-10-28', '2025-11-09']"
Meghani Blood Bank Bilaspur,0.0,0.0,3,2,3,5,4,5,1,5,"['2025-10-30', '2025-11-16']"
Apollo Hospital Blood Bank ,22.087007,82.177637,5,6,6,2,1,1,4,1,"['2025-11-05', '2025-11-11']"
"Shri Rawatpura Sarkar Lok Kalyan Trust, Bilasa Blood Bank ",22.086695,82.152539,3,1,3,5,3,3,5,3,"['2025-10-29', '2025-11-17']"
Ekta Blood Bank,22.078658,82.145069,2,4,6,4,2,3,6,1,"['2025-11-04', '2025-11-11']"
NMDC Apollo Hospital Blood Bank,18.703695,81.248612,2,2,1,3,2,3,5,2,"['2025-10-29', '2025-11-13']"
District Hospital Blood Bank Dantewada,18.89362167,81.3504983,5,1,1,1,3,2,3,6,"['2025-11-02', '2025-11-10']"
NMDC Project Hospital Blood Bank,18.634249,81.252895,3,6,5,3,4,6,4,6,"['2025-11-01', '2025-11-23']"
Dhamtari District Hospital Blood Bank ,20.707653,81.53949,4,6,3,6,1,2,4,1,"['2025-10-30', '2025-11-15']"
Dhamtari Christian Hospital,20.718748,81.55154,5,3,5,2,2,1,5,2,"['2025-10-26', '2025-11-22']"
B.S.R. Cancer Hospital,21.216312,81.322622,1,4,1,5,1,5,4,3,"['2025-10-28', '2025-11-15']"
Chandulal Chandraker Memorial (C.C.M.) Medical College Blood Bank,21.251525,81.337451,2,3,1,2,6,6,4,5,"['2025-10-31', '2025-11-13']"
M/s Shri Shankaracharya Blood Bank,0.0,0.0,6,3,2,4,2,1,4,6,"['2025-11-02', '2025-11-13']"
Durg District Hospital  Blood Bank,21.187096,81.279227,3,2,6,3,6,1,5,5,"['2025-10-27', '2025-11-16']"
J.L.N Hospital & Research Center  Blood Bank,21.189732,81.316117,3,6,3,4,4,2,6,4,"['2025-10-31', '2025-11-13']"
Chandulal Chandrakar Memorial Hopsital Blood Bank,21.200246,81.322665,6,5,1,4,6,6,6,5,"['2025-11-07', '2025-11-13']"
"Gayatri Blood Bank, Durg",0.0,0.0,3,1,6,4,6,4,1,1,"['2025-11-03', '2025-11-14']"
Janjgir District Hospital Blood Bank ,0.0,0.0,1,1,2,3,2,5,3,2,"['2025-11-06', '2025-11-17']"
Jashpur District Hospital Blood Bank ,0.0,0.0,2,2,6,4,6,6,1,1,"['2025-11-02', '2025-11-22']"
Kawardha District Hospital Blood Bank  ,22.036,81.221,2,4,1,6,6,2,3,4,"['2025-11-07', '2025-11-16']"
Kanker District Hospital Blood Bank  ,20.264724,81.495155,1,6,2,1,3,4,6,3,"['2025-11-02', '2025-11-16']"
"Indira Gandhi District Hospital Blood bank, Kobra",22.364,82.744,5,3,5,6,4,2,4,6,"['2025-10-31', '2025-11-14']"
Nehru Centenary Hospital Blood Bank,0.0,0.0,2,1,1,1,3,4,1,5,"['2025-11-04', '2025-11-09']"
"Bilash Blood Bank,KORBA",22.358763,82.7203479,6,6,1,6,3,3,1,6,"['2025-11-04', '2025-11-19']"
Lions Blood Bank,0.0,0.0,4,2,2,3,5,4,4,6,"['2025-11-02', '2025-11-22']"
"Distrcit Hospital Baikunthpur Blood bank, Korea",23.26,82.562,5,3,3,1,5,3,3,5,"['2025-11-03', '2025-11-23']"
Christian Hospital Blood Bank,22.070986,81.687633,1,6,4,4,5,6,3,3,"['2025-10-27', '2025-11-12']"
Ramakrishna Mission Ashram Blood Bank,19.716626,81.229284,5,5,3,4,2,2,2,1,"['2025-11-03', '2025-11-11']"
District Hospital Blood Bank Mahasamund,21.1193227,82.0743057,3,4,6,4,6,6,4,4,"['2025-10-29', '2025-11-21']"
District Hospital Blood Bank Raigarh ,0.0,0.0,4,6,3,4,2,2,2,3,"['2025-10-27', '2025-11-12']"
O.P. Jindal Hospital & Research Centre Blood Bank ,21.927279,83.359147,2,1,4,1,2,1,1,5,"['2025-11-07', '2025-11-18']"
Sewa Blood Bank,21.890931,83.3966244,6,4,1,5,5,1,5,6,"['2025-11-01', '2025-11-18']"
"Dr B R Ambedkar Memorial Hospital, Model Blood Bank",21.25076,81.639,3,4,4,5,3,4,4,1,"['2025-10-29', '2025-11-18']"
Indian Red Cross Society Blood Bank,21.15,81.38,2,2,3,2,3,5,5,6,"['2025-11-01', '2025-11-12']"
Thawait Blood Bank,0.0,0.0,4,6,6,4,1,6,5,1,"['2025-11-05', '2025-11-15']"
City Blood Bank,21.240907,81.620688,4,1,1,4,5,6,2,5,"['2025-10-27', '2025-11-12']"
Sai Sahara Blood Bank,21.251385,81.629642,4,2,1,2,5,1,1,3,"['2025-11-07', '2025-11-17']"
Narayana Hrudayalaya MMI Blood Bank,21.21327,81.65767,1,6,2,2,2,1,3,1,"['2025-11-08', '2025-11-12']"
United Blood Bank,0.0,0.0,2,4,4,2,6,3,1,5,"['2025-11-05', '2025-11-09']"
SSD Blood Bank,21.235832,81.652249,2,1,6,5,2,6,2,1,"['2025-11-03', '2025-11-09']"
Chhattisgarh Blood Bank,21.246825,81.61188,1,6,6,2,4,3,1,3,"['2025-11-05', '2025-11-10']"
Bilasa Blood Bank,21.25435,81.66339,1,2,6,6,4,4,4,3,"['2025-11-04', '2025-11-10']"
Srishti Blood Bank,21.247,81.656,3,4,4,2,2,1,1,4,"['2025-11-05', '2025-11-17']"
Shree Narayana Hospital Blood Bank,21.263533,81.649825,2,1,3,1,6,2,3,3,"['2025-10-31', '2025-11-16']"
Rajdhani Blood Bank,21.244963,81.630129,5,1,5,1,4,2,5,4,"['2025-10-29', '2025-11-09']"
Evangelical Mission Hospital Blood Bank,21.553982,81.79053,5,1,1,4,3,6,4,6,"['2025-11-05', '2025-11-17']"
Raipur Institute of Medical Science,21.263176,81.637035,3,5,3,5,5,2,5,5,"['2025-11-05', '2025-11-17']"
Aashirwad Blood Bank,21.258245,81.66018,5,5,1,1,3,4,1,2,"['2025-10-29', '2025-11-12']"
AIIMS Blood Bank,0.0,0.0,4,3,4,6,4,4,6,4,"['2025-10-27', '2025-11-20']"
Medical college& Hospital Blood Bank Rajnandgaon,21.086463,81.030281,5,5,4,6,5,3,2,3,"['2025-11-07', '2025-11-19']"
bilasa blood bank rajnandgaon,0.0,0.0,6,5,1,3,2,5,6,2,"['2025-10-28', '2025-11-16']"
District Hospital Blood Bank Sukma,0.0,0.0,6,2,3,5,4,3,2,1,"['2025-11-01', '2025-11-18']"
District Hospital Blood Bank,0.0,0.0,1,5,6,2,3,5,3,3,"['2025-11-03', '2025-11-18']"
Surguja District Hospital Blood Bank ,23.1099901,83.1945,3,4,5,4,1,6,6,4,"['2025-11-08', '2025-11-11']"
Holy Cross Hospital Blood Bank,23.134176,83.193534,5,6,3,1,2,3,5,4,"['2025-11-03', '2025-11-23']"
Tej Blood Bank,23.117556,83.191169,4,5,2,5,4,4,5,2,"['2025-11-06', '2025-11-18']"
Indian Red Cross Society (IRCS) Blood Bank,20.276266,73.008306,1,1,6,5,3,1,1,6,"['2025-10-28', '2025-11-11']"
Daman Raktadan Kendra,20.433246,72.831276,2,1,5,6,4,6,5,1,"['2025-10-26', '2025-11-20']"
Diu District Blood Bank,20.712855,70.988929,1,1,3,1,2,2,4,3,"['2025-11-01', '2025-11-21']"
Indian Red Cross Society (IRCS) Blood Bank,28.618675,77.21089,3,3,6,2,6,6,5,6,"['2025-11-02', '2025-11-23']"
Dr. Ram Manohar Lohia Hospital Blood Bank,28.3734,77.125,5,5,5,2,5,3,1,3,"['2025-10-28', '2025-11-09']"
Sucheta Kriplani Hospital Blood Bank,28.63566,77.213327,4,3,3,4,1,5,6,2,"['2025-10-31', '2025-11-16']"
Govind Ballabh (G.B.) Pant Hospital Blood Bank,28.639542,77.235159,5,6,4,4,2,1,1,3,"['2025-11-05', '2025-11-14']"
"Regional Blood Tranfusion Center Blood bank, Central Zone",28.638986,77.23836,2,2,4,4,5,5,2,1,"['2025-10-31', '2025-11-18']"
Kasturba Hospital Blood Bank,28.648838,77.238017,3,6,5,5,6,3,6,4,"['2025-10-26', '2025-11-09']"
Sir Ganga Ram Hospital Blood Bank,28.638675,77.189489,1,2,2,6,1,1,5,1,"['2025-11-02', '2025-11-12']"
Lal Bahadur Shastri Hospital Blood Bank,28.617839,77.311452,4,2,6,3,1,6,4,3,"['2025-10-26', '2025-11-23']"
Max Super Specialty Hospital Blood Bank,28.633501,77.308836,2,4,3,5,3,2,2,1,"['2025-11-08', '2025-11-17']"
Dr. Hedgewar Arogaya Sansthan Blood bank,28.655875,77.293489,6,2,2,3,4,4,5,1,"['2025-10-30', '2025-11-20']"
Lions Blood Bank East Delhi,28.641094,77.309423,6,5,5,3,4,2,2,3,"['2025-11-02', '2025-11-14']"
Dharamshila Cancer Foundation and Research Centre Blood Bank,28.602512,77.314182,1,5,5,3,6,3,1,3,"['2025-11-03', '2025-11-13']"
Northern Railway Central Hospital Blood Bank,28.636518,77.217459,4,1,1,4,3,3,5,1,"['2025-11-06', '2025-11-23']"
Pushpawati Singhania Research Institute Blood bank,28.533218,77.225185,3,3,2,4,5,1,4,6,"['2025-11-07', '2025-11-23']"
"Cardio Neuro Centre Blood Bank, AIIMS ",28.566539,77.20984,1,2,4,2,3,1,5,4,"['2025-10-28', '2025-11-23']"
Hindu Rao Hospital Blood Bank,28.67538,77.212312,5,2,5,4,4,6,3,4,"['2025-10-26', '2025-11-15']"
St. Stephen&#39;s Hospital Blood Bank,28.665135,77.214542,4,5,1,4,1,6,4,3,"['2025-10-25', '2025-11-22']"
Sant Pramanand Hospital Blood Bank,28.677715,77.224099,4,3,2,5,6,2,4,5,"['2025-11-06', '2025-11-12']"
Swami Dayanand Hospital Blood Bank,28.678471,77.304087,5,2,3,3,6,6,5,3,"['2025-10-25', '2025-11-15']"
Mission Jan Jagriti Blood Bank,28.606008,77.295437,5,1,5,5,3,2,6,2,"['2025-11-06', '2025-11-20']"
Central Poly Clinic Blood Bank,28.645742,77.292552,3,3,5,6,4,3,6,1,"['2025-10-28', '2025-11-12']"
Sushruta Trauma Centre Blood Bank,28.680339,77.227674,3,3,4,2,6,3,3,4,"['2025-11-01', '2025-11-18']"
Sanjay Gandhi Memorial Hospital Blood Bank,28.692792,77.081656,6,3,4,3,1,5,2,1,"['2025-11-07', '2025-11-11']"
Sunder Lal Jain Charitable Hospital Blood Bank,28.691886,77.181583,2,6,6,2,1,5,2,1,"['2025-11-04', '2025-11-14']"
Max Super Specialty Hospital Blood Bank,28.727954,77.152927,6,5,3,2,4,3,1,5,"['2025-11-03', '2025-11-19']"
Lions Blood Bank,28.704148,77.162213,2,2,5,2,6,6,5,6,"['2025-11-08', '2025-11-17']"
Mission Jan Jagriti Blood Bank,28.501683,77.246745,5,1,6,5,6,5,3,5,"['2025-10-31', '2025-11-19']"
Saroj Super Speciality Hospital  Blood Bank,28.70612,77.129045,6,4,5,5,3,2,2,4,"['2025-10-31', '2025-11-10']"
Rajiv Gandhi Cancer Institute and Research Center Blood Bank,28.716471,77.11093,3,5,5,4,4,1,1,3,"['2025-11-05', '2025-11-17']"
Dr. Baba Sahab Ambedkar Hospital Blood Bank,28.715052,77.113639,5,2,3,3,5,1,6,5,"['2025-11-04', '2025-11-10']"
Delhi Heart and Lung Institute Blood Bank,28.641636,77.205219,3,1,6,5,2,3,1,6,"['2025-11-08', '2025-11-22']"
Park Hospital Blood Bank,28.651772,77.093105,4,6,3,3,4,1,1,1,"['2025-11-04', '2025-11-20']"
Fortis Hospital Blood Bank,28.709162,77.170214,1,6,3,6,5,5,6,4,"['2025-11-08', '2025-11-19']"
Pitampura Blood Bank,28.700002,77.125443,3,4,3,6,2,6,4,3,"['2025-10-28', '2025-11-17']"
Brahm Shakti Hospital and Research Centre Blood Bank,28.712343,77.081205,2,5,5,6,1,1,2,1,"['2025-11-01', '2025-11-14']"
Guru Tegh Bahadur Hospital Blood Bank,28.683856,77.309903,6,3,1,2,5,3,6,3,"['2025-11-06', '2025-11-19']"
Holy Family Hospital Blood Bank,28.563012,77.275829,3,5,6,1,4,5,4,2,"['2025-10-29', '2025-11-15']"
Batra Hospital and Medical Research Centre Blood Bank,28.513468,77.245773,1,1,3,3,2,6,3,1,"['2025-10-26', '2025-11-18']"
All India Institute of Medical Sciences (AIIMS) Blood Bank,28.567152,77.20902,6,1,4,3,6,6,1,3,"['2025-11-05', '2025-11-16']"
Safdarjung Hospital Blood Bank,28.568016,77.205765,6,1,1,3,3,6,2,1,"['2025-10-29', '2025-11-23']"
Shri Moolchand Khariti-Ram Hospital and Ayurvedic Research Institute ,28.566225,77.235575,3,4,1,4,6,2,3,2,"['2025-11-01', '2025-11-18']"
National Heart Institute Blood Bank,28.5574087,77.2457177,2,4,4,3,1,5,4,2,"['2025-11-02', '2025-11-22']"
Max Super Specialty Hospital Blood Bank,28.527512,77.213547,2,2,1,3,4,6,4,6,"['2025-10-29', '2025-11-09']"
Saket City Hospital Blood Bank,28.527686,77.214348,6,1,6,4,1,3,2,5,"['2025-11-08', '2025-11-22']"
Rockland Hospital Qutab Blood Bank,28.53736,77.181113,4,3,4,5,3,1,3,6,"['2025-10-26', '2025-11-18']"
Primus Ortho and Spine Hospital Blood Bank,28.5929,77.181273,4,4,3,4,2,5,4,4,"['2025-10-27', '2025-11-21']"
White Cross Blood Bank,28.560675,77.253601,3,2,2,6,5,6,6,3,"['2025-10-30', '2025-11-14']"
Rotary Blood Bank,28.513434,77.24269,5,2,5,4,2,6,3,1,"['2025-10-29', '2025-11-12']"
Jai Prakash Narayan Apex Trauma Centre Blood Bank,28.568128,77.200338,5,1,4,4,5,6,3,3,"['2025-11-07', '2025-11-10']"
Fortis Escort Heart Institute Blood Bank,28.560455,77.273777,1,4,2,3,3,2,2,1,"['2025-10-28', '2025-11-17']"
Hakeem Abdul Hameed Centenary Hospital Blood Bank,28.513711,77.251861,6,1,4,1,1,2,1,4,"['2025-11-06', '2025-11-23']"
Apollo Hospital Blood Bank,28.540647,77.283445,6,5,1,3,6,4,2,4,"['2025-10-25', '2025-11-23']"
Armed Forces Transfusion Centre Blood Bank,28.596425,77.117561,2,3,3,6,6,6,2,5,"['2025-11-01', '2025-11-12']"
Fortis Flt. Lt. Rajan Dhall Hospital Blood Bank,28.519397,77.160438,5,5,6,5,2,3,2,5,"['2025-11-05', '2025-11-10']"
Institute of Liver and Biliary Sciences Blood Bank,28.506259,77.165051,6,5,6,3,4,5,2,4,"['2025-10-29', '2025-11-23']"
Mata Chanan Devi Hospital Blood Bank,28.618861,77.078382,1,3,6,2,3,4,4,2,"['2025-10-25', '2025-11-23']"
Bhagat Chandra Hospital Blood Bank,28.593451,77.081221,3,1,5,5,2,3,4,6,"['2025-11-01', '2025-11-12']"
Indian Spinal Injuries Centre Blood Bank,28.532663,77.141765,5,6,6,6,2,1,5,3,"['2025-11-03', '2025-11-21']"
Bensups Hospital Blood Bank,28.592838,77.044191,2,5,5,5,2,6,3,3,"['2025-10-28', '2025-11-17']"
Blood Bank Organisation,28.642777,77.18156,5,3,2,1,2,6,1,6,"['2025-11-03', '2025-11-19']"
E. S. I. Hospital Blood Bank,28.657697,77.13012,5,3,3,1,3,1,2,2,"['2025-11-05', '2025-11-22']"
Maharaja Agrasen Hospital Blood Bank,28.67408,77.134063,4,4,3,2,6,1,4,2,"['2025-11-05', '2025-11-22']"
Sri Balaji Action Medical Institute Blood Bank,28.673738,77.110226,4,3,1,5,1,3,3,2,"['2025-11-07', '2025-11-12']"
Dr. B. L. Kapoor Memorial Hospital Blood Bank,28.643642,77.179979,5,6,2,2,5,3,3,3,"['2025-11-02', '2025-11-22']"
Kalra Hospital and Shri Ram Cardiothoracic and Neurosciences Center (SRCNC) Blood Bank,28.657823,77.142691,4,5,3,5,1,4,4,4,"['2025-11-03', '2025-11-22']"
"R.B.T.C (wz), Deen Dayal Upadhyay Hospital",28.583437,77.117583,2,3,2,3,6,1,5,2,"['2025-11-06', '2025-11-15']"
Jaipur Golden Hospital Blood Bank,28.697734,77.109478,3,3,2,5,5,1,5,4,"['2025-11-06', '2025-11-17']"
Jan Jagriti Blood Bank,28.605975,77.295427,6,6,2,1,4,5,5,4,"['2025-11-01', '2025-11-11']"
District Hospital Blood Bank ,15.597585,73.820198,3,3,3,6,6,1,2,6,"['2025-10-31', '2025-11-12']"
Goa Medical College Blood Bank,15.463768,73.858813,3,1,6,4,6,4,5,2,"['2025-10-28', '2025-11-19']"
Hospicio Hospital Blood Bank,15.27947,73.960567,1,1,6,5,1,1,1,1,"['2025-11-07', '2025-11-20']"
Apollo Victor Hospital Blood Bank,15.268835,73.965605,2,3,6,5,6,6,3,3,"['2025-10-28', '2025-11-11']"
SMRC&#39;s V. M. Salgaocar Hospital Blood Bank,15.395075,73.837127,4,4,1,4,1,5,3,6,"['2025-11-08', '2025-11-21']"
V. S. Hospital Blood Bank,23.020595,72.571659,6,3,6,5,3,1,3,3,"['2025-11-01', '2025-11-15']"
Smt. Shardaben Hospital Blood Bank,23.035285,72.617719,6,3,5,6,2,3,4,1,"['2025-10-30', '2025-11-09']"
L. G. Hospital Blood Bank,22.999464,72.60458,2,3,4,6,1,1,3,6,"['2025-11-07', '2025-11-16']"
Civil Hospital Blood Bank,23.051227,72.6055,4,5,6,5,1,3,1,6,"['2025-10-26', '2025-11-09']"
General Hospital Blood Bank Sola,23.082702,72.525858,1,2,3,1,2,1,3,1,"['2025-10-28', '2025-11-17']"
Indian Red Cross Society Blood Bank,23.012718,72.55774,6,1,5,1,3,6,4,1,"['2025-11-02', '2025-11-20']"
The Gujarat Cancer & Research Institute Blood Bank,23.039061,72.610263,4,2,1,2,1,5,3,6,"['2025-10-29', '2025-11-14']"
Institute of Kidney Disease and Research Centre ,23.051439,72.605577,6,3,1,6,2,3,6,4,"['2025-10-31', '2025-11-18']"
Help Voluntary Blood Bank  ,23.000103,72.604863,4,5,3,2,4,5,2,1,"['2025-11-04', '2025-11-22']"
GUJARAT CANCER MEDICAL COLLEGE,23.038706,72.610334,6,1,6,2,1,2,6,4,"['2025-11-04', '2025-11-22']"
General Hospital Blood Bank ,23.028114,72.623869,5,2,1,5,6,4,5,1,"['2025-10-25', '2025-11-10']"
Military Hospital Blood Bank,0.0,0.0,5,1,5,2,4,6,2,2,"['2025-11-02', '2025-11-17']"
Dr. Jivraj Mehta  Smarak Health Foundation Blood Bank,23.008319,72.543367,6,5,1,6,4,4,6,2,"['2025-10-25', '2025-11-18']"
Prathama Blood Centre,23.006225,72.541921,2,3,5,6,1,2,1,4,"['2025-10-28', '2025-11-17']"
White Cross Blood Bank ,23.06573,72.636791,5,3,5,6,5,1,4,1,"['2025-11-07', '2025-11-19']"
Adarsh Pathology Laboratory and Blood Bank,23.033177,72.628422,5,1,5,2,4,4,1,2,"['2025-10-31', '2025-11-10']"
Gujarat Blood Bank Paldi,23.016405,72.566328,1,4,5,4,2,4,5,1,"['2025-10-28', '2025-11-11']"
Karnavati Blood Bank and Pathology Lab,23.057858,72.552974,2,4,6,2,5,4,2,5,"['2025-10-25', '2025-11-11']"
Cross World Voluntary Blood Bank ,23.056322,72.570237,3,1,2,1,3,6,5,5,"['2025-10-29', '2025-11-09']"
Maha Gujarat Blood Bank,22.997578,72.603054,6,1,2,6,1,1,4,2,"['2025-10-28', '2025-11-19']"
Supratech Voluntary Blood Bank,23.067721,72.512046,2,4,6,4,6,4,3,1,"['2025-11-04', '2025-11-20']"
Sterling Hospital,23.048798,72.531309,3,3,4,5,5,6,1,2,"['2025-11-06', '2025-11-20']"
Ami Pathology Laboratory and Blood Bank,23.08705,72.592226,4,3,4,4,5,5,2,2,"['2025-11-03', '2025-11-13']"
Gujarat Blood Bank Naranpura,23.055467,72.560224,2,1,1,2,3,2,1,2,"['2025-10-26', '2025-11-20']"
Indian Red Cross Society Blood Bank,21.606994,71.22186,3,6,4,1,4,2,1,4,"['2025-10-30', '2025-11-13']"
Indian Red Cross Society Blood Bank,22.554608,72.960402,4,6,6,3,4,1,2,2,"['2025-10-26', '2025-11-13']"
Indu Voluntary Blood Bank,22.596385,72.80717,2,3,3,4,4,2,5,1,"['2025-10-30', '2025-11-13']"
Ghanshyam Pathlology Laboratory and Blood Bank,22.556549,72.963992,6,6,3,1,2,4,4,2,"['2025-10-29', '2025-11-18']"
Lions Club Khambat Blood Bank,21.520533,70.454461,4,3,6,1,6,2,3,3,"['2025-10-25', '2025-11-11']"
A.D. Gorwala Karamsad Blood Bank  ,22.539473,72.890433,5,6,1,1,4,3,3,2,"['2025-11-08', '2025-11-10']"
Indian Red Cross Society Blood Bank Petlad,22.564674,72.96086,1,4,4,2,5,4,4,4,"['2025-11-08', '2025-11-23']"
Gandhi Lincon Hospital Blood Bank,24.256318,72.184372,1,6,6,5,6,3,2,3,"['2025-10-30', '2025-11-22']"
"M. U. Pethani Voluntary Blood Bank, Palanpur",24.170367,72.435186,6,4,4,3,3,4,2,6,"['2025-10-28', '2025-11-17']"
General Hospital Blood Bank Palanpur ,24.175017,72.434692,6,1,5,4,3,3,1,1,"['2025-11-01', '2025-11-11']"
Gayatri Pathology Laboratory and Voluntary Blood Bank,24.266228,72.183973,1,4,4,3,4,2,4,3,"['2025-11-07', '2025-11-13']"
Bhoomi Voluntary Blood Bank Palanpur,24.162436,72.414225,6,6,2,1,2,2,2,1,"['2025-10-29', '2025-11-13']"
Vikas Voluntary Blood Bank,24.264792,72.183378,4,2,4,3,3,4,2,3,"['2025-11-04', '2025-11-11']"
Dharti Voluntary Blood Bank,24.499781,72.020131,1,4,3,5,4,2,4,3,"['2025-10-25', '2025-11-17']"
Saraswati Voluntary Blood Bank,24.499588,72.032557,6,4,1,4,1,1,5,6,"['2025-10-27', '2025-11-10']"
Gayatri Voluntary Blood Bank,24.263756,72.162408,5,2,1,1,2,3,6,3,"['2025-11-08', '2025-11-16']"
Adarsh Voluntary Blood Bank ,24.396283,71.638042,6,2,1,2,3,2,2,3,"['2025-11-01', '2025-11-15']"
Indian Red Cross Society Blood Bank,21.725118,21.725118,6,1,5,3,4,4,1,6,"['2025-10-30', '2025-11-22']"
Kumarpal Gandhi Blood Bank,21.628147,72.995778,2,1,1,5,4,6,6,5,"['2025-11-07', '2025-11-13']"
Sir T. General Hospital Blood Bank,21.767673,72.141981,3,3,2,2,6,3,6,1,"['2025-11-08', '2025-11-21']"
Bhavnagar Blood Bank,21.76982,72.160378,1,3,5,1,4,5,6,6,"['2025-11-06', '2025-11-10']"
Bambhaniya Voluntary Blood Bank,21.774103,72.143714,1,4,2,2,4,6,6,2,"['2025-11-02', '2025-11-09']"
Navkar Charitable Trust Mahuva Blood Bank,21.088961,71.769089,5,1,4,2,3,2,6,3,"['2025-11-07', '2025-11-19']"
Smt. Sonalien A. Shah Blood Bank,22.178967,71.651792,2,3,4,4,3,5,4,4,"['2025-10-29', '2025-11-23']"
Tulsi Pathology Laboratory and Blood Bank,21.529208,71.824705,4,3,5,2,1,2,6,6,"['2025-11-06', '2025-11-15']"
 Indian Red Cross Society Blood Bank ,22.838831,74.254139,3,3,3,1,4,3,1,1,"['2025-11-06', '2025-11-23']"
Samarth Raktdan Kendra                                                             ,22.949278,73.630239,5,5,5,1,6,5,3,1,"['2025-11-01', '2025-11-19']"
Kiran Voluntary Blood Bank                                                                       ,22.839956,74.254361,6,5,2,3,2,5,6,3,"['2025-10-25', '2025-11-12']"
General Hospital Blood Bank Ahwa,20.761612,73.689241,5,6,4,2,3,4,4,2,"['2025-10-28', '2025-11-09']"
"Indian Red Cross Society (IRCS), Kalol, Gandhinagar",22.608583,73.459578,4,3,6,3,1,2,4,4,"['2025-11-01', '2025-11-22']"
"GMERS MEDICL COLLEGE ATTACHED GENERAL HOSPITAL, GANDHINAGAR",23.218597,72.641585,3,6,6,4,6,4,5,3,"['2025-10-30', '2025-11-13']"
Shraddhadeep Pathology Lab and Blood Bank,23.226929,72.646557,2,5,6,4,3,6,3,6,"['2025-11-07', '2025-11-15']"
 Apollo Hospital International Limited Blood Bank,23.109635,72.625835,3,4,1,1,2,1,6,4,"['2025-10-25', '2025-11-19']"
Indian Medical Association (IMA) Blood Bank,23.420056,72.653181,6,2,2,5,6,3,5,5,"['2025-11-06', '2025-11-12']"
G.G.Hospital Blood Bank,22.48531,70.058561,5,1,5,4,5,5,6,3,"['2025-11-06', '2025-11-20']"
Jamnagar Voluntary Blood Bank,22.461884,70.072017,2,1,2,3,6,3,2,5,"['2025-10-30', '2025-11-09']"
General Hospital Blood Bank,22.208586,69.651914,6,2,3,2,6,4,2,1,"['2025-11-02', '2025-11-18']"
Tata Chemical Limited Blood Bank Mithapur,22.205519,69.102536,6,1,1,2,2,6,4,4,"['2025-10-26', '2025-11-19']"
General Hospital Blood Bank Junagadh,21.520666,70.459367,2,2,3,2,6,6,2,6,"['2025-10-29', '2025-11-13']"
Divyajyoti Charitable Voulantary Blood Bank,20.827644,70.041767,2,3,4,3,6,4,4,3,"['2025-10-29', '2025-11-23']"
Shri Jivanprakash Foundation Voluntary Blood Bank,21.520902,70.453799,4,4,1,5,5,6,3,6,"['2025-10-28', '2025-11-22']"
"Navjeevan Blood Bank and Clinical Laboratory,  Veraval",20.919489,70.352739,2,2,6,5,6,2,5,2,"['2025-10-31', '2025-11-12']"
Navdeep Blood Bank  ,21.520745,70.454426,5,2,1,5,1,2,6,5,"['2025-10-27', '2025-11-14']"
"Sardar Patel voulantary Blood Bank, Keshod",21.297078,70.246131,3,4,2,2,3,5,4,1,"['2025-10-26', '2025-11-19']"
"G.K. General Hospital Blood Bank, Bhuj",23.240587,23.240587,4,1,2,5,3,4,3,3,"['2025-11-01', '2025-11-13']"
Rajabhai Patel Blood Bank (IMA),23.073501,23.073501,3,3,6,5,6,5,1,6,"['2025-10-26', '2025-11-17']"
Mayur Voluntary Blood Bank   Mandvi,22.833302,69.354198,3,2,6,3,3,5,1,2,"['2025-11-08', '2025-11-09']"
Jivan Jyot Blood Bank  ,23.241748,69.67181,1,4,1,1,6,3,1,1,"['2025-10-26', '2025-11-12']"
"Matrushri Meghbai Pramji Jetha Hospital and Research Centre, Bhuj ",23.242291,69.666889,3,5,2,5,1,6,5,5,"['2025-11-05', '2025-11-18']"
Indian Red Cross Society Blood Bank ,22.021536,73.0772,2,1,6,2,1,3,3,4,"['2025-10-30', '2025-11-12']"
Indian Red Cross Society Blood Bank Nadiad,22.691088,22.691088,5,1,1,3,2,5,4,2,"['2025-11-06', '2025-11-16']"
Muljibhai Patel Urological Hospital Blood Bank,22.683058,72.872039,1,3,5,3,4,3,5,2,"['2025-11-02', '2025-11-15']"
Gujarat Methodist Church Cardiac Care and Research Society Blood Bank,22.701204,72.844443,1,5,4,3,1,4,6,6,"['2025-11-08', '2025-11-09']"
General Hospital Blood Bank Mehsana,23.608546,72.391231,2,1,4,6,4,3,2,4,"['2025-11-02', '2025-11-10']"
Mehsana Jaycees Charitable Trust Blood Bank,23.607589,72.384975,6,3,6,3,2,6,3,4,"['2025-11-02', '2025-11-14']"
"Sardar Seva Trust, Unjha Nagrik Sahkari Voluntary Blood Bank",23.804024,72.389713,4,1,5,6,4,5,6,5,"['2025-11-03', '2025-11-13']"
Visnagar Voluntary Blood Bank,23.701586,72.541897,2,5,5,5,2,2,4,4,"['2025-11-01', '2025-11-14']"
Indian Red Cross Society Blood Bank Navsari,20.949882,72.918373,4,1,6,5,5,6,2,6,"['2025-10-31', '2025-11-22']"
Lions Medical Trust Blood Bank Chikhali,20.947927,73.028072,4,4,3,4,4,3,5,6,"['2025-11-05', '2025-11-19']"
N. M. Patel Blood Bank Bilimora,0.0,0.0,3,2,1,2,4,2,6,5,"['2025-10-26', '2025-11-09']"
Indian red Cross Society Blood Bank Godhara,22.770106,22.770106,5,6,3,5,3,5,2,2,"['2025-11-07', '2025-11-09']"
"General Hospital Blood Bank Godhra, ",22.771958,73.620689,5,1,1,3,5,1,5,6,"['2025-11-01', '2025-11-20']"
Raktdan Kendra Voluntary Blood Bank Godhra ,22.762228,73.608892,5,2,1,6,3,6,6,6,"['2025-11-04', '2025-11-14']"
Seventilal Kantilal Blood Bank,23.848226,72.112104,2,4,1,6,5,4,1,1,"['2025-11-06', '2025-11-19']"
GMERS Medical College and Hospital Blood Bank Dharpur ,23.84643,72.191676,2,6,6,2,4,2,4,1,"['2025-11-06', '2025-11-19']"
"Bahansali Trust Raktdan Kendra, Radhanpur ",23.823539,71.616139,3,3,3,2,5,3,6,6,"['2025-10-25', '2025-11-19']"
General Hospital Blood Bank Siddhpur,23.916169,72.372983,4,5,5,6,1,4,2,2,"['2025-10-28', '2025-11-13']"
General Hospital Blood Bank Porbandar,21.636578,69.628472,3,1,4,2,2,2,3,1,"['2025-11-02', '2025-11-16']"
Asha Children Hospital and Blood Bank,21.633396,21.633396,4,6,6,5,6,4,6,6,"['2025-10-26', '2025-11-20']"
Shri Ram Blood Bank Porbandar,21.640642,69.604689,3,4,2,2,4,2,1,5,"['2025-11-06', '2025-11-11']"
Astha Voluntary Blood Bank Gondal,21.959147,70.803122,2,6,5,1,2,6,1,2,"['2025-11-07', '2025-11-16']"
P.D.U. Medical College Blood Bank,22.304595,70.799732,5,5,1,6,3,6,5,5,"['2025-10-31', '2025-11-16']"
Rajkot Voluntary Blood Bank and Research Centre,22.287302,70.8003,4,4,3,4,6,1,4,4,"['2025-10-26', '2025-11-09']"
Red Cross Blood Bank Rajkot,22.295381,70.796956,1,1,5,6,6,5,6,1,"['2025-10-28', '2025-11-12']"
 Saurastra Voluntary Blood Bank Rajkot,22.30301,70.787022,6,6,2,2,5,2,4,6,"['2025-10-25', '2025-11-12']"
General Hospital Blood Bank Morbi,22.815814,70.831473,4,3,2,4,2,2,4,1,"['2025-11-02', '2025-11-20']"
Nationality Development Foundation Blood Bank Rajkot,22.283334,70.799999,4,6,2,1,2,3,4,2,"['2025-10-27', '2025-11-22']"
"Nathani Voluntary Blood Bank,  Rajkot ",22.2943,70.788614,6,2,6,5,6,1,6,6,"['2025-11-05', '2025-11-23']"
Shiv Voluntary Blood Bank Morbi,22.811453,70.828261,4,3,6,6,6,2,2,5,"['2025-11-02', '2025-11-17']"
Jetpur Medical Foundation Trust Blood Bank Jetpur,21.757189,70.622644,3,1,2,2,4,1,2,1,"['2025-10-25', '2025-11-15']"
Jagruti Charitable Trust Blood Bank Dhoraji,21.731878,70.450128,2,4,6,5,6,6,5,4,"['2025-10-26', '2025-11-21']"
GMERS Medical College Attach Sir Pratap General Hospital Blood Bank,23.595692,72.960688,3,4,6,3,1,3,3,6,"['2025-10-30', '2025-11-20']"
Indian Red Cross Society Blood Bank Himmatnagar,23.056733,72.573372,3,5,3,3,1,2,2,6,"['2025-11-06', '2025-11-22']"
Patel Voluntary Blood Bank Modasa,23.467375,73.297689,4,2,4,1,4,3,6,2,"['2025-10-31', '2025-11-14']"
Trimurti Blood Bank,23.838678,23.838678,2,1,2,2,2,2,1,5,"['2025-10-30', '2025-11-18']"
Late N.H. Ramani Memorial Voluntary Blood Bank and Navchetan Pathology Lab Modasa,23.459892,73.297569,6,1,3,6,5,2,5,3,"['2025-10-29', '2025-11-17']"
New Civil Hospital Blood Bank,21.180272,72.821117,3,1,4,1,2,5,4,5,"['2025-10-28', '2025-11-16']"
Surat Raktdan Kendra,21.172667,72.829951,1,6,1,5,5,6,3,3,"['2025-11-05', '2025-11-15']"
"Lok Samarpan Raktadan Kendra, Surat",21.219718,72.910619,5,3,6,4,3,3,3,5,"['2025-11-01', '2025-11-14']"
Shree Mahavir Health And Medical Relief Society Blood Bank,21.184104,72.813897,3,1,4,3,2,4,5,6,"['2025-11-05', '2025-11-16']"
Shree Sardar Smarak Hospital Blood Bank,21.130451,73.108096,1,2,6,2,4,4,3,5,"['2025-10-31', '2025-11-23']"
SMIMER Hospital Blood Bank,21.196246,72.845477,3,6,4,1,6,5,5,3,"['2025-11-04', '2025-11-16']"
 Surat Health Care Foundation Blood Bank,21.195,72.819444,5,5,3,1,1,3,3,5,"['2025-10-26', '2025-11-22']"
General Hospital Surendranagar Blood Bank,22.7226,71.649165,2,5,5,6,3,1,6,3,"['2025-10-29', '2025-11-22']"
C. U. Shah Medical College and Hospital Blood Bank,22.741751,71.622137,4,1,6,4,2,2,6,3,"['2025-11-05', '2025-11-11']"
Sharddha Voluntary Blood Bank and Pathology Laboratory Dhangadhra,22.990836,71.47162,5,6,3,6,6,6,4,3,"['2025-11-02', '2025-11-21']"
Laxmiben Kushalbhai Patel Blood Bank ,21.113314,21.113314,6,3,4,5,1,4,3,2,"['2025-11-05', '2025-11-20']"
Maliba Raktdan Kendra (IRCS),21.118758,73.404128,4,5,3,1,1,2,6,3,"['2025-11-05', '2025-11-18']"
S. S. G. Hospital Vadodara,22.307133,73.189731,6,5,2,4,2,2,1,3,"['2025-11-05', '2025-11-17']"
Jamnabai Blood Bank,22.300308,22.300308,5,5,4,5,6,3,3,4,"['2025-10-30', '2025-11-12']"
"Medical Care Centre Trust, Shri Jalaram Blood Bank, Vadodara  ",22.314965,73.195356,5,1,4,5,2,5,4,3,"['2025-11-08', '2025-11-18']"
Suraktam Blood Bank Vadodara,22.307765,73.18633,4,1,3,1,4,1,5,4,"['2025-10-31', '2025-11-11']"
Kailash Cancer Hospital & Research Centre Blood Bank.,22.334629,73.464162,5,4,1,2,2,1,3,1,"['2025-11-01', '2025-11-15']"
GMERS Medical College and General Hospital Blood Bank,22.313751,73.148086,6,4,4,4,6,4,5,1,"['2025-11-03', '2025-11-23']"
Indu Blood Bank Vadodara,22.304204,73.1935,4,2,3,1,3,3,3,6,"['2025-11-03', '2025-11-10']"
Dhiraj General Blood Bank Vadodara,22.30732,73.181079,2,5,2,3,5,3,5,6,"['2025-10-30', '2025-11-14']"
Bhailal Amin General Hospital Blood Bank,22.325426,73.163239,4,6,5,5,5,2,3,3,"['2025-11-07', '2025-11-21']"
SBPP Cooperative Bank Foundation Blood Bank,20.516862,72.951211,3,3,1,3,1,2,3,6,"['2025-11-08', '2025-11-09']"
General Hospital and GMERS Medical College Blood Bank,20.59404,72.922063,6,1,5,3,6,4,2,6,"['2025-11-07', '2025-11-12']"
Valsad Raktdan Kendra,20.609737,72.929097,5,3,5,3,4,3,6,6,"['2025-10-31', '2025-11-16']"
"Nukem Blood Bank, Vapi",20.381255,72.920819,1,4,1,1,5,5,6,4,"['2025-10-31', '2025-11-20']"
Smt. Puriben Popat Lakha Blood Bank,20.373994,72.904781,4,4,5,2,2,5,6,6,"['2025-11-03', '2025-11-21']"
Military Hospital Blood Bank Ambala,30.353047,76.833532,6,6,5,3,2,2,5,2,"['2025-11-03', '2025-11-13']"
MM Institute of Medical Sciences and Research Blood Bank,30.252282,77.049488,1,1,1,1,5,6,3,2,"['2025-11-05', '2025-11-21']"
Sanjeevani Blood Bank,30.339065,76.836686,3,1,4,4,5,2,3,4,"['2025-10-29', '2025-11-14']"
General Hospital Blood Bank Ambala City ,30.378711,76.779636,4,5,4,2,6,6,4,5,"['2025-11-01', '2025-11-18']"
Philadelphia Mission Hospital Blood Bank,30.383042,76.785947,4,1,5,3,3,4,1,1,"['2025-10-28', '2025-11-19']"
General Hospital Bhiwani Blood Bank ,28.797229,76.13081,2,4,2,2,2,1,4,4,"['2025-10-27', '2025-11-21']"
City Blood Bank,0.0,0.0,2,6,4,4,5,5,6,3,"['2025-11-01', '2025-11-18']"
Gold Field Hospital and Research Centre,28.277083,77.454948,1,5,1,5,6,3,3,4,"['2025-11-03', '2025-11-16']"
Badshah Khan General Hospital Blood Bank,28.392623,77.299274,4,2,3,1,2,3,2,6,"['2025-11-03', '2025-11-10']"
Escorts Hospital and Research Center Limited Blood Bank,28.391378,77.306856,4,6,3,5,1,6,6,1,"['2025-10-26', '2025-11-14']"
M/s Sunflag Hospital and Research Centre Blood Bank,28.40274,77.31823,5,2,5,2,5,4,1,5,"['2025-11-03', '2025-11-15']"
Sarvodaya Hospital and Research Centre,28.422451,77.316923,5,3,1,1,2,6,6,2,"['2025-11-03', '2025-11-13']"
QRG Central Hospital and Research Centre Blood Bank,28.393014,77.310047,1,4,2,5,3,1,3,4,"['2025-11-05', '2025-11-16']"
Sant Bhagat Singh Maharaj Ji Charitable Hospital Blood Bank,28.383115,77.302218,3,5,2,4,4,2,2,4,"['2025-10-26', '2025-11-09']"
Asian Institute of Medical Sciences Blood Bank,28.425756,77.299823,3,2,6,6,4,4,5,6,"['2025-11-06', '2025-11-13']"
Metro Heart Institute with Multispecialty,28.406835,77.318049,2,2,3,4,2,2,3,2,"['2025-10-27', '2025-11-09']"
General Hospital Blood Bank Fatehabad,29.517629,75.448988,1,4,2,5,4,4,6,6,"['2025-10-26', '2025-11-12']"
Jagdambe Blood Bank,29.715587,75.900961,4,5,2,3,2,1,1,4,"['2025-11-07', '2025-11-22']"
Paras Health Care Private Limited Blood Bank,28.451204,77.087719,4,4,5,3,4,2,2,3,"['2025-11-05', '2025-11-21']"
Artemis Medicare Services Limited Blood Bank,28.43132,77.072134,3,4,1,4,1,5,5,3,"['2025-10-31', '2025-11-09']"
Medanta The Medicity Hospital Blood Bank,28.439105,77.040909,3,1,2,4,4,2,5,2,"['2025-11-02', '2025-11-17']"
Alchemist Institute of Medical Sciences Blood Bank,28.439328,77.10227,3,3,1,3,3,2,5,6,"['2025-11-04', '2025-11-15']"
SGT Medical College Hospital and Research Institute Blood Bank ,28.478407,76.902714,5,3,5,1,6,4,3,4,"['2025-11-02', '2025-11-10']"
Park Hospital Blood Bank,28.420003,77.048378,3,1,4,3,2,1,4,5,"['2025-10-29', '2025-11-09']"
Fortis Memorial Research Institute Blood Bank,28.456975,77.07299,6,4,6,4,3,3,2,4,"['2025-11-05', '2025-11-12']"
Fortis Memorial Research Institute Blood Bank,28.456965,77.07297,2,3,2,6,6,4,5,1,"['2025-10-27', '2025-11-19']"
"General Hospital Blood Bank, Gurugram",28.511841,76.986694,1,2,1,5,6,2,1,1,"['2025-10-29', '2025-11-12']"
Umkal Blood Bank,0.0,0.0,2,1,3,4,5,2,4,2,"['2025-11-08', '2025-11-13']"
VPS Rockland Hospital Blood bank,0.0,0.0,3,2,6,2,3,6,5,3,"['2025-11-05', '2025-11-11']"
"Columbia Asia Hospital - Palam Vihar, Blood Bank",0.0,0.0,6,1,4,5,2,6,5,3,"['2025-11-02', '2025-11-14']"
Paras Hospital Blood Bank,0.0,0.0,3,6,5,2,1,3,1,3,"['2025-10-25', '2025-11-19']"
Nalwa Pathology and Microbiology Laboratory Blood Bank,29.157025,75.722428,1,3,4,2,3,3,1,3,"['2025-11-01', '2025-11-15']"
Central Medical Centre (CMC) Hospital Blood Bank,29.140858,75.734103,4,6,1,6,5,6,6,6,"['2025-11-03', '2025-11-11']"
Haryana Blood Bank,29.130234,75.74437,6,4,5,2,4,6,3,4,"['2025-10-31', '2025-11-09']"
Manglam Blood Bank,29.131899,75.744839,5,6,6,6,3,2,6,1,"['2025-11-05', '2025-11-09']"
Hisar Blood Bank,0.0,0.0,4,6,2,3,6,2,2,4,"['2025-11-05', '2025-11-10']"
Dr. Anant Ram Janta Hospital Blood Bank,29.363162,75.901772,1,5,2,3,6,3,6,4,"['2025-10-29', '2025-11-19']"
"National Blood Bank, Kharab Hospital Blood Bank",29.310977,76.344908,6,3,1,3,1,2,1,2,"['2025-10-26', '2025-11-11']"
Sarvodaya Blood Bank services,29.1409,75.733801,5,1,3,1,6,4,6,5,"['2025-10-25', '2025-11-12']"
General Hospital Blood Bank Hisar,29.17,75.718602,5,6,5,3,2,1,5,2,"['2025-10-31', '2025-11-16']"
"Maharaja Agrasen Medical College, Agroha, Blood Bank",29.336707,75.622627,1,5,2,4,1,1,1,2,"['2025-10-25', '2025-11-21']"
General Hospital Blood Bank Jhajjar,28.607735,76.642891,4,5,5,5,1,1,2,1,"['2025-11-01', '2025-11-11']"
General Hospital Blood Bank Jind,29.311866,76.330022,2,2,5,5,2,5,2,4,"['2025-11-05', '2025-11-12']"
National Blood Bank,0.0,0.0,5,2,1,6,5,4,5,5,"['2025-11-02', '2025-11-13']"
Gangaputra Hospital and Research Centre Blood Bank,29.378281,76.337165,3,4,3,2,3,2,4,6,"['2025-11-08', '2025-11-15']"
Smt. Indira Gandhi Government Multispeciality Blood Bank,29.793446,76.421959,6,4,6,1,1,2,3,4,"['2025-11-08', '2025-11-09']"
Haryana Institute of Medical Sciences (HIMS) Hospital Blood Bank,29.844728,76.441361,2,1,5,3,3,5,6,6,"['2025-11-03', '2025-11-19']"
Kapisthal Blood Bank,0.0,0.0,5,4,3,3,6,2,3,5,"['2025-11-03', '2025-11-13']"
General Hospital Blood Bank Karnal,29.696067,76.994185,4,6,6,6,1,6,5,3,"['2025-11-01', '2025-11-13']"
Nirmal Institute of Medical Sciences and Technology Blood Bank,28.4734936,77.2906064,6,4,6,2,6,4,3,4,"['2025-10-27', '2025-11-13']"
Pandit Ram Prakash Hospital and Kidney Centre Blood Bank,0.0,0.0,4,6,5,3,5,5,1,6,"['2025-10-26', '2025-11-17']"
Save Life Blood Bank,28.701048,77.103863,5,5,6,5,2,5,1,1,"['2025-10-26', '2025-11-19']"
LNJP District Government Hospital Blood Bank ,29.964985,76.820558,3,1,3,5,2,6,6,2,"['2025-11-07', '2025-11-16']"
Kurukshetra Blood Bank,29.970016,76.838528,1,3,1,6,2,4,6,4,"['2025-11-04', '2025-11-17']"
Adesh Blood Bank,0.0,0.0,3,1,1,6,6,5,1,6,"['2025-11-05', '2025-11-10']"
Civil Hospital Narnaul ,0.0,0.0,4,6,3,5,3,2,1,2,"['2025-11-02', '2025-11-20']"
General Hospital Blood Bank Mandikhera,0.0,0.0,1,2,6,4,2,6,4,6,"['2025-11-06', '2025-11-15']"
Shaheed Hasan Khan Mewati Government Medical College Blood Bank  ,28.091167,76.971562,4,4,4,1,4,5,6,6,"['2025-10-30', '2025-11-21']"
Diamond Blood Bank LLT,0.0,0.0,6,1,5,2,6,3,3,6,"['2025-10-29', '2025-11-15']"
General Hospital Blood Bank Palwal,28.136087,77.327024,1,1,5,3,2,2,3,3,"['2025-10-31', '2025-11-23']"
Command Hospital Blood Bank,30.712615,76.854089,1,5,6,6,3,3,5,1,"['2025-10-30', '2025-11-20']"
Alchemist Hospital Panchkula Blood Bank,28.439332,77.10227,6,1,5,5,2,6,5,6,"['2025-10-28', '2025-11-16']"
District Hospital Panchkula Blood Bank,30.710793,76.845878,2,1,4,2,4,6,1,3,"['2025-10-27', '2025-11-17']"
N.C. Medical College and Hospital Blood Bank,29.286568,76.878961,6,3,5,4,4,6,2,1,"['2025-10-28', '2025-11-09']"
Red Cross Blood Bank,29.39369,76.969115,3,1,3,1,2,5,5,3,"['2025-11-03', '2025-11-11']"
Prem Blood Bank,29.398644,76.966314,2,4,4,5,6,5,3,3,"['2025-11-03', '2025-11-23']"
Bharat Blood Bank,0.0,0.0,1,3,6,5,6,1,3,3,"['2025-10-27', '2025-11-19']"
Panipat Blood Bank,29.391662,76.957172,2,2,4,5,2,1,2,4,"['2025-11-07', '2025-11-23']"
Cygnus Maharaja Aggarsain Hospital Blood Bank,0.0,0.0,4,2,1,5,1,4,4,6,"['2025-10-31', '2025-11-23']"
Rewari Blood Bank,28.187832,76.616935,6,1,2,4,5,6,1,1,"['2025-11-05', '2025-11-19']"
General Hospital Rewari Blood Bank,28.202218,76.619789,5,5,1,6,1,3,3,4,"['2025-11-05', '2025-11-19']"
Bharti Blood Bank,0.0,0.0,2,6,2,5,1,1,5,6,"['2025-11-06', '2025-11-15']"
Pandit Bhagwat Dayal Sharma Post Graduate Institute of Medical Sciences (PGIMS) Blood Bank,28.879942,76.608052,1,2,3,5,1,5,4,3,"['2025-11-06', '2025-11-16']"
General Hospital Blood Bank Sirsa,29.538977,75.014269,6,3,2,6,2,2,2,6,"['2025-10-28', '2025-11-19']"
Shiv Shakti Blood Bank,29.536432,75.022062,6,2,3,1,5,1,2,6,"['2025-11-04', '2025-11-12']"
Bapu Maghar Singh Ji International Blood Bank,29.467914,75.068864,2,2,1,1,3,3,6,2,"['2025-11-01', '2025-11-13']"
Bapu Maghar singh ji,0.0,0.0,1,3,6,6,1,3,6,6,"['2025-10-27', '2025-11-23']"
General Hospital Blood Bank Sonipat,28.990486,77.036475,3,4,4,4,4,3,3,5,"['2025-11-01', '2025-11-15']"
Sonipat Blood Bank,28.991527,77.034557,1,1,6,4,4,1,4,4,"['2025-10-30', '2025-11-22']"
Bhagat Phool Singh Government Medical College for Women Blood Bank,29.149774,76.808336,6,6,4,3,2,3,2,5,"['2025-10-30', '2025-11-23']"
Shree MAA Blood Bank,30.147696,77.304339,2,5,6,4,3,1,5,2,"['2025-11-08', '2025-11-16']"
MLGH Trauma Centre Yamuna Nagar Blood Bank ,30.1442,77.303543,6,1,1,2,3,5,2,3,"['2025-11-01', '2025-11-11']"
Bilaspur Regional Hospital Blood bank,31.335735,76.765248,4,3,4,4,3,3,6,5,"['2025-11-01', '2025-11-21']"
Chamba Regional Hospital Blood Bank ,32.558834,76.12246,2,6,3,3,2,6,1,4,"['2025-11-05', '2025-11-16']"
Bhota Charitable Hospital Blood Bank,31.609374,76.569182,2,4,4,2,1,3,3,4,"['2025-11-07', '2025-11-10']"
Hamirpur Regional Hospital Blood bank,31.679905,76.527416,6,2,6,1,2,4,4,2,"['2025-11-01', '2025-11-23']"
 Dharamshala Zonal Hospital Blood Bank,32.2129086,76.3194044,2,5,3,5,6,5,2,5,"['2025-10-28', '2025-11-15']"
Dr Rajendra Prasad Government Medical College (RPGMC) Blood Bank Tanda,32.0982738,76.3007658,1,5,5,6,1,3,6,2,"['2025-10-26', '2025-11-19']"
"Military Hospital,Yol Cant, Kangra",0.0,0.0,4,6,6,1,6,4,6,2,"['2025-10-28', '2025-11-20']"
Civil Hospital Blood Bank Palampur,32.107726,76.534876,6,4,5,3,6,4,4,5,"['2025-10-26', '2025-11-15']"
Reckong Peo Regional Hospital Blood Bank ,31.539316,78.267034,4,2,3,3,2,3,1,3,"['2025-11-01', '2025-11-11']"
Kullu Regional Hospital Blood Bank ,31.956462,77.111661,3,4,3,1,1,6,4,3,"['2025-11-03', '2025-11-17']"
Netaji Subhash Chander Bose Zonal Hospital Blood Bank,31.711561,76.927209,2,3,5,2,3,3,5,6,"['2025-11-08', '2025-11-11']"
Rohru Civil Hospital Blood Bank ,31.201285,77.752272,6,2,4,1,6,2,4,4,"['2025-11-04', '2025-11-09']"
Indira Gandhi Medical College Blood Bank Shimla,31.1071605,77.1831203,4,1,4,6,1,4,4,3,"['2025-11-02', '2025-11-09']"
Deen Dayal Updhayay Hospital Blood Bank,31.103536,77.17218,2,6,6,4,6,3,4,2,"['2025-10-26', '2025-11-19']"
Kamla Nehru Hospital Blood Bank,31.096648,77.175267,2,3,1,4,5,2,6,1,"['2025-10-26', '2025-11-10']"
Mahatma Gandhi Medical Services Blood Bank Rampur,31.4470213,77.6294213,6,1,3,4,5,4,5,1,"['2025-10-27', '2025-11-21']"
Nahan Regional Hospital Blood Bank ,30.559933,77.295483,2,1,1,1,2,4,2,6,"['2025-10-30', '2025-11-13']"
Malhotra Super Speciality Hospital Blood Bank ,30.9491629,76.8319738,4,3,6,6,5,5,3,3,"['2025-10-28', '2025-11-17']"
Maharishi Markendeshwar Medical College and Hospital Blood Bank,30.8713445,77.0863049,5,1,3,2,2,4,1,5,"['2025-11-06', '2025-11-13']"
 Solan Regional Hospital Blood Bank,30.90738,77.107075,4,3,5,3,1,4,6,5,"['2025-11-08', '2025-11-23']"
Una Regional Hospital Blood Bank ,31.4785791,76.2741605,5,2,5,4,5,2,2,6,"['2025-11-02', '2025-11-14']"
MMAB memorial District Hospital  Blood Bank Anantnag,33.7253569,75.153155,5,6,1,3,5,2,6,2,"['2025-11-05', '2025-11-21']"
Baramulla District Hospital Blood Bank,34.2031312,74.3654033,1,5,3,5,6,3,5,4,"['2025-11-02', '2025-11-21']"
Chodana Sub-District Hospital Blood Bank,33.9429341,74.7993502,6,6,2,1,2,2,6,4,"['2025-11-06', '2025-11-21']"
Budgam District Hospital Blood Bank ,34.020827,74.719824,3,5,3,6,3,1,6,3,"['2025-10-27', '2025-11-17']"
Doda District Hospital Blood Bank ,33.144377,75.543698,4,6,3,1,3,1,5,2,"['2025-10-27', '2025-11-19']"
District Hospital Blood Bank Ganderbal ,34.1944531,74.652155,4,4,5,1,1,4,4,6,"['2025-11-06', '2025-11-22']"
Government Hospital Blood Bank Gandhi Nagar,32.705277,74.859974,3,5,2,4,6,5,5,6,"['2025-10-30', '2025-11-17']"
Government Medical College and Hospital Blood Bank,32.736061,74.853998,2,4,1,1,3,2,2,5,"['2025-11-04', '2025-11-19']"
Sri Maharaja Gulab Singh (SMGS) Hospital Blood Bank,32.733578,74.862023,4,4,4,3,2,2,5,6,"['2025-11-05', '2025-11-12']"
Bee Enn General Hospital Blood Bank,32.7297174,74.8411347,5,4,1,1,5,3,4,1,"['2025-10-26', '2025-11-19']"
Sainik Asptal Blood Bank Satwari,0.0,0.0,2,6,4,6,6,1,2,5,"['2025-11-07', '2025-11-13']"
Acharya Shri Chander College of Medical Sciences and Hospital Blood Bank,32.760493,74.898955,5,4,1,3,1,2,4,5,"['2025-11-06', '2025-11-12']"
Kargil District Hospital (Kargil Ladakh Kashmir Division) Blood Bank ,34.559251,76.124874,3,4,5,4,4,3,3,4,"['2025-10-29', '2025-11-23']"
Kathua District Hospital Blood Bank ,32.390815,75.5252,4,3,3,6,2,5,2,5,"['2025-10-31', '2025-11-17']"
Kishtwar District Hospital Blood Bank  ,33.3139274,75.7681239,5,4,2,3,3,1,3,3,"['2025-10-28', '2025-11-23']"
Kulgam District Hospital Blood Bank ,33.645305,75.026719,1,4,1,6,6,3,4,3,"['2025-10-29', '2025-11-19']"
Handwara District Hospital Blood Bank,34.396437,74.284765,3,6,6,5,1,5,5,6,"['2025-10-27', '2025-11-13']"
General Hospital Blood Bank,0.0,0.0,4,1,5,2,2,3,5,5,"['2025-11-02', '2025-11-09']"
SNM Hospital Blood Bank,34.153795,77.580209,2,2,6,6,5,6,5,3,"['2025-10-30', '2025-11-21']"
Raja Sukhdev Singh District Hospital Poonch,33.772293,74.098062,4,5,1,5,3,3,3,4,"['2025-11-08', '2025-11-20']"
Pulwama District Hospital Blood Bank ,33.878861,74.900779,6,6,4,1,4,4,4,5,"['2025-10-26', '2025-11-12']"
General Hospital Blood Bank (Army),0.0,0.0,1,4,1,4,6,1,2,2,"['2025-10-26', '2025-11-20']"
Rajouri District Hospital Blood Bank ,33.3880811,74.316008,6,4,3,3,3,2,3,5,"['2025-10-31', '2025-11-16']"
Ramban District Hospital Blood Bank ,33.2420569,75.2392611,6,1,1,4,1,5,5,3,"['2025-10-26', '2025-11-17']"
District Hospital Blood Bank Sambha ,32.560515,75.120911,2,1,5,2,1,2,1,2,"['2025-10-27', '2025-11-16']"
District Hospital Blood Bank Shopian ,33.7200624,74.8338034,5,3,5,5,1,6,2,2,"['2025-10-31', '2025-11-15']"
Shri Maharaja Hari Singh (SMHS) Hospital Blood Bank,34.0862001,74.7977402,3,4,1,1,2,4,3,5,"['2025-11-03', '2025-11-15']"
92 Base Hospital Blood Bank,34.06591,74.856181,2,1,4,5,4,4,5,5,"['2025-10-31', '2025-11-23']"
Sher-I-Kashmir Institute of Medical Sciences (SKIMS) Blood bank,34.136677,74.800264,6,4,1,2,6,4,3,2,"['2025-11-01', '2025-11-19']"
 Government Lal Ded Hospital Blood Bank,34.0667492,74.8081809,6,1,2,1,2,5,3,2,"['2025-10-26', '2025-11-13']"
Government Bone and Joint Surgery Hospital Blood Bank,34.0481,74.80522,5,4,1,5,4,6,6,1,"['2025-10-28', '2025-11-21']"
Jawahar Lal Nehru Memorial Hospital Blood Bank,34.097759,74.821651,5,1,6,2,6,4,3,2,"['2025-11-04', '2025-11-15']"
Command Hospital Blood Bank ,32.930786,75.135348,3,5,4,6,6,4,5,5,"['2025-10-30', '2025-11-19']"
Udhampur District Hospital Blood Bank ,32.919922,75.132831,6,5,6,6,5,5,3,3,"['2025-11-02', '2025-11-11']"
Indian Red Cross Society Blood Bank Bokaro,23.644138,86.151112,6,2,2,4,6,4,2,5,"['2025-10-28', '2025-11-19']"
Bokaro General Hospital Blood Bank,23.675112,86.145632,2,6,4,4,4,5,2,2,"['2025-11-08', '2025-11-09']"
K.M. Memorial Hospital & Research Center Blood Bank,23.633257,86.173506,1,6,6,5,3,3,2,6,"['2025-10-31', '2025-11-11']"
Deoghar Sadar Hospital Campus Blood Bank ,24.491027,86.693996,2,5,6,1,4,5,5,4,"['2025-10-30', '2025-11-20']"
Patliputra Medical college and Hospital (PMCH) Blood Bank Dhanbad,23.7976877,86.4356088,3,3,5,4,1,1,4,2,"['2025-11-04', '2025-11-11']"
Central Hospital Blood Bank BCCL Dhanbad,23.8057146,86.4509654,6,1,5,2,4,4,3,3,"['2025-11-02', '2025-11-23']"
S. N. Chakraborty Memorial Chakraborty Nursing Home Blood Bank,0.0,0.0,6,6,6,4,1,2,6,5,"['2025-11-07', '2025-11-12']"
Dwarka Das Jalan Memorial Hospital Bartand Blood Bank ,23.806393,86.43059,1,5,5,3,1,6,6,3,"['2025-10-27', '2025-11-23']"
Dumka Sadar Hospital Blood Bank ,24.267264,87.251613,6,3,6,2,1,2,6,6,"['2025-11-04', '2025-11-15']"
MGM Medical College Hospital Campus Blood Bank Jamshedpur,22.811699,86.210334,1,1,3,6,2,6,3,2,"['2025-11-03', '2025-11-16']"
Jamshedpur Blood Bank ,22.804227,86.181256,1,4,1,2,5,2,3,2,"['2025-10-25', '2025-11-12']"
Garhwa Sadar Hospital Campus Blood Bank ,24.158163,83.802052,1,6,3,5,1,3,3,5,"['2025-11-03', '2025-11-23']"
Giridih Sadar Hospital Blood Bank ,24.1879903,86.3064543,6,2,3,4,4,2,5,2,"['2025-10-25', '2025-11-21']"
Gumla Sadar Hospital Blood Bank ,23.0346771,84.5383358,1,2,4,2,4,3,2,2,"['2025-11-08', '2025-11-22']"
Hazaribag Sadar Hospital Blood Bank ,23.997502,85.3564179,3,4,3,2,2,3,6,6,"['2025-11-04', '2025-11-21']"
TISCO West Bokaro Hospital Blood Bank ,0.0,0.0,4,1,2,1,1,5,6,5,"['2025-11-05', '2025-11-14']"
Koderma Sadar Hospital Blood Bank ,24.188289,86.306465,3,2,2,6,5,6,4,6,"['2025-11-01', '2025-11-18']"
Latehar Sadhar Hospital Blood Bank,23.7432844,84.5059776,3,4,4,4,2,4,4,5,"['2025-10-25', '2025-11-18']"
Lohardaga Sadar Hospital Blood Bank ,23.441722,84.685316,4,4,3,4,4,1,1,2,"['2025-10-28', '2025-11-15']"
Pakur Sadar Hospital Blood Bank ,24.6476852,87.7862334,3,3,2,1,1,2,3,5,"['2025-10-27', '2025-11-12']"
Palamu Sadar Hospital Blood Bank ,24.047051,84.060447,4,5,3,3,3,2,5,2,"['2025-10-30', '2025-11-22']"
CCL Hospital Blood Bank Ramgarh,23.6484192,85.5093472,4,5,5,2,6,6,1,1,"['2025-11-02', '2025-11-13']"
Military Hospital Blood Bank Ramgarh,0.0,0.0,6,5,5,4,4,5,6,6,"['2025-11-04', '2025-11-13']"
Apurva Blood Bank Ramgarh,0.0,0.0,6,2,2,4,3,2,3,3,"['2025-10-29', '2025-11-14']"
"Heavy Engineering Corporation, Plant Hospital Blood Bank",23.313367,85.277743,4,3,6,2,6,2,6,3,"['2025-10-27', '2025-11-14']"
"Rajendra Institute of Medical Science (RIMS) Blood Bank, Bariyatu",23.388964,85.349138,2,6,6,4,1,3,3,1,"['2025-11-04', '2025-11-22']"
CCL Hospital Blood Bank Ranchi,23.408788,85.321355,4,3,2,5,3,1,2,4,"['2025-11-02', '2025-11-10']"
Indian Red Cross Society (IRCS) Blood Bank Morabadi,23.3882502,85.3281205,6,5,4,2,4,5,3,1,"['2025-11-07', '2025-11-17']"
Abdur Razzaque Memorial Weavers Hospital (ARAM) Blood Bank ,23.4507571,85.4370738,5,6,6,1,1,4,1,2,"['2025-11-03', '2025-11-15']"
Nagarmal Modi Seva Sadan Hospital Blood Bank,23.371161,85.317141,5,4,1,4,2,4,4,3,"['2025-10-31', '2025-11-16']"
Rinchi Trust Hospital Blood Bank,23.3451234,85.1106008,4,6,1,2,5,5,3,6,"['2025-10-26', '2025-11-20']"
Devkamal Hospital and Research Centre Blood Bank,23.3691335,85.2204851,6,3,6,2,4,4,4,3,"['2025-10-25', '2025-11-10']"
Gurunanak Hospital and Research Centre Blood Bank ,23.349938,85.330008,5,6,5,4,2,5,1,2,"['2025-11-07', '2025-11-19']"
Sainik Hospital Blood Bank Namkum,23.3496021,85.3796172,1,4,5,2,5,3,4,4,"['2025-11-05', '2025-11-22']"
Birsa Blood Bank Bariyatu,0.0,0.0,1,5,6,1,6,4,6,4,"['2025-10-25', '2025-11-11']"
Jharkhand Blood Bank Bariatu ,23.395757,85.351652,4,2,1,6,4,1,4,6,"['2025-11-02', '2025-11-12']"
Archi Blood Bank Jharkhand ,23.38949,85.346526,1,6,1,6,4,6,1,6,"['2025-11-07', '2025-11-12']"
Sahebganj Sadar Hospital Blood Bank ,25.235841,87.634215,2,2,3,4,5,6,1,5,"['2025-10-27', '2025-11-20']"
Simdega Sadar Hospital Blood Bank ,22.6149779,84.5028825,1,1,6,1,3,2,2,3,"['2025-11-01', '2025-11-12']"
Chaibasa Sadar Hospital Blood Bank ,22.5505168,85.8054811,3,2,5,4,6,2,6,1,"['2025-10-27', '2025-11-22']"
Kiriburu Meghahatuburu General Hospital Blood Bank,22.104554,85.291571,3,5,3,1,6,1,5,4,"['2025-11-04', '2025-11-21']"
TATA (TISCO) Hospital Blood bank,22.145873,85.494402,2,1,4,5,1,2,4,3,"['2025-10-31', '2025-11-12']"
Bagalkot Blood Bank,16.186132,75.70653,1,1,2,6,3,6,4,1,"['2025-10-30', '2025-11-23']"
B. V. V. Sanghas HSK Hospital Blood Bank,16.165075,75.675072,2,4,3,5,3,1,3,5,"['2025-11-07', '2025-11-21']"
District Hospital Blood Bank Bagalkot,16.165011,75.660812,1,1,4,4,1,1,5,3,"['2025-11-01', '2025-11-15']"
M/s. Vijay Mahant Blood Bank,0.0,0.0,3,6,2,1,3,2,5,6,"['2025-10-27', '2025-11-19']"
Mounesh Hospital&#39;s The Jhamkandi Blood Bank,0.0,0.0,6,4,2,4,5,1,2,3,"['2025-11-05', '2025-11-18']"
Ramanagoudar Hospital Blood Bank,15.364709,75.123955,1,1,3,3,5,1,5,4,"['2025-11-08', '2025-11-15']"
M/s. Sai Aadhar Hospital Blood Bank,16.325218,75.289397,6,5,4,3,1,6,2,1,"['2025-10-31', '2025-11-11']"
K.L.E.Society & Medical Research Centre Blood Bank,15.887919,74.519593,5,6,3,3,1,1,1,6,"['2025-10-28', '2025-11-17']"
Belgaum Blood Bank and Diagnostic Laboratory,15.860356,74.512478,2,4,5,1,4,5,3,1,"['2025-10-31', '2025-11-10']"
District Hospital Blood Bank,15.86908,74.510438,2,5,4,5,1,6,5,1,"['2025-11-07', '2025-11-15']"
Shree Mahaveer Blood Bank,15.854367,74.511233,2,2,5,2,1,6,1,2,"['2025-11-02', '2025-11-12']"
M/s. Sri Sai Blood Bank,15.833587,74.526571,6,1,2,5,6,4,1,3,"['2025-10-28', '2025-11-18']"
Rotary Charitable Trust Blood Bank,16.160173,74.812128,3,5,3,4,3,2,1,5,"['2025-10-31', '2025-11-20']"
Rotary Seva Sangh Blood Bank,16.160405,74.81216,3,5,6,3,6,2,4,2,"['2025-10-28', '2025-11-16']"
Medical College Hospital Blood Bank,15.154334,76.896594,1,4,4,6,6,5,1,3,"['2025-10-29', '2025-11-21']"
District Hospital Blood Bank Bellary,0.0,0.0,4,4,4,2,5,5,6,4,"['2025-11-03', '2025-11-13']"
Swamy Vivekananda Charitable Blood Bank,0.0,0.0,4,1,1,1,2,5,2,3,"['2025-10-28', '2025-11-21']"
Smt. Vasantidevi Baldota Blood Bank,0.0,0.0,1,6,2,3,6,6,5,5,"['2025-10-31', '2025-11-10']"
Chiranjeevi Blood Bank,0.0,0.0,2,3,1,3,2,5,5,6,"['2025-11-02', '2025-11-19']"
M/s. Sri Siddartha Medical College Hospital Blood Bank,13.160791,77.323405,2,3,1,6,6,6,2,1,"['2025-10-26', '2025-11-15']"
MVJ Medical College and Research Hospital Blood Bank,13.077457,77.811502,6,1,3,1,2,5,1,4,"['2025-10-29', '2025-11-20']"
BGS Global Hospitals Blood Bank,12.911276,77.486216,5,3,4,2,2,1,2,2,"['2025-10-30', '2025-11-23']"
Harsha Hospital Blood Bank,13.097983,77.38581,1,6,5,4,5,4,4,4,"['2025-10-30', '2025-11-13']"
Narayana Hrudayalaya Blood Bank,12.80927,77.695173,4,6,5,4,6,1,1,5,"['2025-11-07', '2025-11-19']"
Government Haji Sir Ismail Sait Gosha Hospital Blood Bank,12.987532,77.604913,4,3,6,5,3,2,4,1,"['2025-11-04', '2025-11-14']"
Swamy Vivekananda Voluntary Blood Bank,12.9649846,77.589012,4,5,6,1,3,4,3,1,"['2025-10-31', '2025-11-17']"
M/s. Aster CMI Hospital Blood Bank,13.054677,77.592504,2,2,4,6,2,2,4,4,"['2025-10-27', '2025-11-10']"
M/s. East Point Hospital Blood Bank Virgonagar,13.053662,77.717912,5,5,5,2,4,1,4,1,"['2025-11-01', '2025-11-14']"
Unique Blood Bank & Diagnostic Centre,12.965837,77.576262,1,4,1,5,6,2,1,3,"['2025-11-01', '2025-11-19']"
SHUSHRUTHA VOLUNTARY BLOOD BANK,12.9978842,77.5411603,2,3,3,1,1,3,3,4,"['2025-10-29', '2025-11-09']"
Bengaluru Blood Bank and Diagnostic Laboratory,12.998074,77.571614,6,1,2,5,5,3,5,2,"['2025-11-05', '2025-11-09']"
Bengaluru Rotary TTK Medical Service Trust Blood Bank,12.99807,77.580434,4,5,1,1,2,6,5,1,"['2025-11-04', '2025-11-09']"
KIMS Hospital Blood Bank,12.956353,77.574114,1,5,5,2,4,3,4,6,"['2025-10-28', '2025-11-14']"
Bangalore Baptist Hospital Blood Bank,13.035289,77.589935,5,6,2,4,2,4,5,4,"['2025-11-04', '2025-11-10']"
Sanjaya Gandhi Accident Hospital and Research Institute Blood Bank,12.935769,77.593859,1,5,5,2,3,2,2,3,"['2025-11-05', '2025-11-10']"
Victoria Hospital Blood Bank,12.963399,77.573818,1,5,3,5,4,1,4,1,"['2025-10-29', '2025-11-11']"
M. S. Ramaiah Medical Teaching Hospital Blood Bank,13.030487,77.566648,1,2,2,1,3,1,4,1,"['2025-11-06', '2025-11-20']"
Saint Martha&#39;s Hospital Blood Bank,12.970679,77.586085,6,1,5,6,3,2,6,5,"['2025-10-27', '2025-11-18']"
Kidwai Memorial Institute of Oncology Blood Bank,12.93759,77.598537,1,1,5,5,1,6,4,4,"['2025-11-03', '2025-11-15']"
Transfusion Medicine Centre Blood Bank,12.94039,77.59883,5,1,6,2,2,6,6,1,"['2025-11-06', '2025-11-23']"
St. John&#39;s Medical College Blood Bank,12.929482,77.620182,6,1,3,4,3,3,1,6,"['2025-11-02', '2025-11-11']"
Mallya Hospital Blood Bank,12.968063,77.595068,3,3,2,1,2,2,2,4,"['2025-11-02', '2025-11-13']"
Hindustan Aeronautics Limited - HAL Hospital Blood Bank ,12.962447,77.665284,5,2,2,2,6,6,6,1,"['2025-11-01', '2025-11-13']"
Saint Philomena Blood Bank,12.965428,77.610476,2,1,5,1,1,5,6,5,"['2025-10-31', '2025-11-12']"
K. C. General Hospital Blood Bank,12.996389,77.56931,3,2,1,6,1,5,2,6,"['2025-11-01', '2025-11-10']"
Command Hospital Blood Bank Air Force,12.963321,77.62882,1,2,1,5,5,3,3,4,"['2025-11-06', '2025-11-16']"
E.S.I.Hospital Blood Bank,12.990775,77.553498,5,2,1,2,1,5,4,5,"['2025-11-06', '2025-11-14']"
Rashtrotthana Blood Bank,12.954814,77.565362,1,2,1,6,5,1,2,5,"['2025-11-05', '2025-11-22']"
Dr. B. R.Ambedkar Medical College Hospital Blood Bank,13.025275,77.614217,6,2,1,5,4,6,4,6,"['2025-11-01', '2025-11-10']"
Hosmat Hospital Unit of Phisicare Services Private Limited Blood Bank,12.969035,77.61346,4,3,1,6,2,6,4,5,"['2025-10-27', '2025-11-11']"
Grace Blood Bank and Laboratory,13.026155,77.588859,3,3,4,5,4,4,4,3,"['2025-11-08', '2025-11-19']"
Sri Sathya Sai Institute of Higher Medical Sciences Blood Bank,12.981135,77.729224,5,1,3,2,1,4,6,4,"['2025-10-29', '2025-11-15']"
Navarang Blood Bank,12.9982,77.551623,6,3,5,3,3,6,6,1,"['2025-10-25', '2025-11-23']"
Bangalore Lions Service Trust - Lions Blood Bank,12.989645,77.592754,6,3,3,3,6,2,5,1,"['2025-10-29', '2025-11-11']"
Sri Jayadeva Institute of Cardiology Blood Bank,12.917957,77.599329,2,4,5,4,4,1,6,5,"['2025-11-02', '2025-11-10']"
Vydehi Institute of Medical Science Hospital Blood Bank,12.975378,77.72927,4,2,5,4,1,2,2,4,"['2025-11-03', '2025-11-12']"
Akshay Voluntary Blood Bank,12.989853,77.552805,6,4,5,3,6,1,5,4,"['2025-10-29', '2025-11-12']"
Bowring and Lady Curzon Hospitals Blood Bank,12.982165,77.604276,4,4,6,6,3,5,1,4,"['2025-11-01', '2025-11-22']"
Kempegowda Medical Service Trust - Millennium Blood Bank,13.019584,77.557981,1,2,5,6,6,3,5,2,"['2025-10-31', '2025-11-13']"
S. K. Voluntary Blood Bank,12.974445,77.549288,2,3,6,5,1,2,4,6,"['2025-10-25', '2025-11-23']"
Indira Gandhi Child Institute of Health Blood Bank,12.937319,77.592016,2,1,2,4,2,4,5,5,"['2025-11-04', '2025-11-20']"
Rajarajeshwari Medical College Hospital Blood Bank,12.896508,77.46166,2,4,5,4,3,3,3,5,"['2025-10-31', '2025-11-22']"
Sanjeevini Trust Jayanagar Voluntary Blood Bank,12.9157415,77.5909561,3,4,5,2,1,1,4,4,"['2025-11-08', '2025-11-22']"
Sri Vinayaka Charitable Trust  Jeeva Voluntary Blood Bank,12.961633,77.571067,1,4,1,1,4,3,4,1,"['2025-11-04', '2025-11-18']"
Indian Red Cross Society - Karnataka Red Cross Blood Bank,12.984218,77.578831,3,2,1,2,6,1,3,1,"['2025-10-29', '2025-11-15']"
Apollo Hospitals (Imperial Cancer Hospital and Research Centre) Blood Bank,12.89643,77.598015,5,5,4,5,3,2,2,6,"['2025-10-28', '2025-11-11']"
Vijayanagar Hospital Blood Bank,12.969227,77.536519,4,1,5,2,5,2,3,4,"['2025-10-31', '2025-11-11']"
Bangalore Institute of Oncology Blood Bank,12.964273,77.589629,4,5,4,3,6,5,4,4,"['2025-11-01', '2025-11-17']"
Ocean Blood Bank,12.982018,77.604484,3,1,3,1,2,6,6,4,"['2025-10-28', '2025-11-11']"
Rotary K. R. Hospital Blood Bank,12.941937,77.553588,4,3,5,6,4,1,6,1,"['2025-10-28', '2025-11-12']"
Veerayoga Institute of Medical Sciences Speciality Hospitals Blood Bank,12.948331,77.699554,2,4,5,3,3,5,6,6,"['2025-11-05', '2025-11-12']"
Columbia Asia Referral Hospital Blood Bank,13.014167,77.556035,2,6,2,5,1,4,3,5,"['2025-11-06', '2025-11-18']"
Sagar Hospital Blood Bank,12.907709,77.565114,2,1,3,3,5,4,4,6,"['2025-10-26', '2025-11-21']"
Fortis Hospital Private Limited Blood Bank,12.89453,77.598902,1,5,1,3,5,5,3,3,"['2025-11-02', '2025-11-23']"
Fortis Hospital Private Limited Blood Bank,12.988216,77.594232,4,5,3,3,5,2,6,1,"['2025-10-30', '2025-11-11']"
Sagar Hospital Blood Bank,12.928003,77.599598,2,1,5,4,3,6,6,6,"['2025-11-07', '2025-11-14']"
Manipal Hospital Transfusion Services Blood Bank,12.958758,77.6491,2,4,6,1,6,5,3,2,"['2025-10-26', '2025-11-13']"
Yashomathi Medicare and Research Centre Private Limited Blood Bank,12.955719,77.711256,3,5,1,6,5,1,2,6,"['2025-11-07', '2025-11-14']"
Life Care Voluntary Blood Bank,12.92837,77.581654,4,6,1,6,1,5,3,6,"['2025-10-28', '2025-11-13']"
The Oxford Medical College Hospital Blood Bank and Research Centre,12.787186,77.756942,5,4,4,5,2,2,2,3,"['2025-10-31', '2025-11-11']"
Sakra World Hospital Blood Bank,12.932125,77.685263,6,2,2,2,2,6,3,5,"['2025-11-06', '2025-11-15']"
Dr.Rajkumar (Appaji) Blood Bank,12.967558,77.589363,1,1,4,5,6,6,5,2,"['2025-10-28', '2025-11-09']"
Sri Shankara Cancer Hospital and Research Centre Blood Bank,12.954575,77.571128,1,5,4,6,6,6,5,1,"['2025-11-01', '2025-11-20']"
Mediscope Blood Bank,12.999478,77.616872,2,2,6,4,4,6,6,6,"['2025-10-31', '2025-11-23']"
Sapthagiri Hospital Blood Bank,13.070573,77.50228,5,4,1,4,2,5,5,5,"['2025-11-05', '2025-11-09']"
The District Surgeon District Hospital Blood Bank,17.918098,77.515003,5,2,5,2,5,4,4,2,"['2025-10-29', '2025-11-14']"
District Hospital Blood Bank Bijapur,16.828098,75.691713,6,2,3,6,4,6,5,6,"['2025-10-28', '2025-11-20']"
B.L.D.E. Association&#39;s Medical College & Reserch Centre Blood Bank,16.845101,75.710641,4,5,3,3,6,6,1,4,"['2025-11-08', '2025-11-16']"
Lions Blood Bank,16.827207,75.725839,2,3,5,2,5,1,4,6,"['2025-11-01', '2025-11-10']"
Dr. B. N. M. Rural Ayurvedic Medical College and Hospital Blood Bank,16.8301759,75.7078424,4,5,4,2,3,1,1,1,"['2025-10-28', '2025-11-11']"
Al-Ameen Medical College Hospital Blood Bank,16.825058,75.669209,1,4,2,3,1,1,3,6,"['2025-10-30', '2025-11-18']"
GMETS Dr. Goudars Blood Bank,16.828072,75.709979,2,4,2,1,1,3,3,6,"['2025-11-06', '2025-11-17']"
District Hospital Blood Bank Chamarajanagar,11.926773,76.941473,1,5,2,2,6,1,3,4,"['2025-10-27', '2025-11-15']"
Holy Cross Hospital Blood Bank,12.12938,77.233586,5,2,3,3,5,5,2,1,"['2025-11-04', '2025-11-12']"
Indian Red Cross Society Blood Bank Chikkaballapur,13.438043,77.72929,4,3,4,1,2,2,6,4,"['2025-10-28', '2025-11-20']"
Mallegowda District Hospital Blood Bank,13.218016,75.251826,1,5,1,3,6,4,6,3,"['2025-10-31', '2025-11-14']"
Holy Cross Hospital Blood Bank,13.338634,75.80355,4,1,3,2,5,4,2,3,"['2025-10-28', '2025-11-20']"
Sharada Dhanvantari Charitable Hospital Blood Bank,13.428948,75.254286,6,1,4,5,4,6,4,1,"['2025-10-28', '2025-11-22']"
District Hospital Blood Bank Chitradurga,14.220818,76.4065,4,3,4,1,4,3,3,2,"['2025-11-04', '2025-11-16']"
SJM Blood Bank Basaveshwara Medical College Hospital and Research Centre,14.239807,76.388943,2,5,2,4,3,4,3,6,"['2025-11-01', '2025-11-19']"
Vasavi Blood Bank,14.229572,76.409483,3,1,6,3,2,2,5,5,"['2025-11-06', '2025-11-19']"
Jyothi Hospital Blood Bank,12.991208,75.288255,3,5,1,5,5,6,5,2,"['2025-11-06', '2025-11-14']"
M/s. Indian Red Cross Society Blood Bank,13.628482,74.690683,3,2,3,2,5,6,5,6,"['2025-11-05', '2025-11-20']"
Fr. Mullers Charitable Instituitions Blood Bank,12.866805,74.85933,6,5,3,2,6,5,6,3,"['2025-10-28', '2025-11-18']"
City Hospital Research and Diagnostic Centre Blood Bank,12.87963,74.853044,2,3,2,3,5,5,4,5,"['2025-10-28', '2025-11-10']"
The District Surgeon - Wenlock District Hospital Blood Bank,12.867384,74.843132,4,1,3,6,6,6,6,6,"['2025-11-06', '2025-11-22']"
Yenepoya Medical College Blood Bank,12.81194,74.881231,5,1,2,1,6,6,1,1,"['2025-10-27', '2025-11-18']"
A. J. Hospital and Research Centre Blood Bank,12.899478,74.845975,3,3,5,6,3,6,2,1,"['2025-11-05', '2025-11-11']"
KMC University Medical Centre Blood Bank,12.870434,74.844505,1,1,5,2,6,4,1,4,"['2025-10-27', '2025-11-23']"
Srinivasa Institute of Medical Sciences and Research Centre Blood Bank,13.021405,74.792037,1,2,6,3,1,5,6,5,"['2025-11-05', '2025-11-11']"
 M/s. Tejasvini Hospital Lions Blood Bank,12.880334,74.853689,4,1,2,1,2,2,2,5,"['2025-10-27', '2025-11-16']"
Indian Red Cross Society Blood Bank Mangalore,12.864857,74.83818,3,2,3,4,3,6,5,1,"['2025-11-05', '2025-11-17']"
Nitte University Blood Bank,12.807444,74.888332,2,2,5,3,2,6,6,4,"['2025-11-06', '2025-11-16']"
M/s. Kanachur Hospital & Research Centre Blood Bank,12.803421,74.898097,5,4,1,1,5,6,5,6,"['2025-11-05', '2025-11-20']"
Rotary Campco Blood Bank,12.760706,75.198947,6,4,3,2,2,4,1,3,"['2025-10-30', '2025-11-09']"
General Hospital Blood Bank Puttur,12.758344,75.200313,4,4,3,6,2,5,4,2,"['2025-10-25', '2025-11-14']"
K. V. G Medical College Hospital Blood Bank,12.55332,75.384249,1,4,2,6,5,4,2,5,"['2025-10-31', '2025-11-22']"
Chigateri District Hospital Blood Bank,14.456165,75.916182,4,1,3,4,1,3,5,4,"['2025-11-08', '2025-11-09']"
Bapuji Hospital Blood Bank,14.4588202,75.9167473,5,3,1,6,5,2,5,2,"['2025-10-28', '2025-11-10']"
Davangere Blood Bank,14.459198,75.915238,5,1,4,6,2,1,4,6,"['2025-10-28', '2025-11-22']"
Bapuji Educational Association S. S. Institute of Medical Sciences and Research Hospital Blood Bank,14.430349,75.942694,4,5,5,5,5,3,3,4,"['2025-11-02', '2025-11-18']"
Karnataka Hemophillia Society Life Line Blood Bank,14.457405,75.902533,2,1,5,1,3,4,4,1,"['2025-10-27', '2025-11-09']"
INDIAN RED CROSS SOCIETY,14.475314,75.909787,3,2,4,5,2,3,6,1,"['2025-11-05', '2025-11-22']"
Rotary Club Dharwad Mid Town Charitable Trust - Rotary Blood Bank,15.46373,74.969829,1,4,3,4,4,4,5,2,"['2025-10-26', '2025-11-10']"
District Hospital Blood Bank Dharwad,15.46473,75.010366,5,2,3,2,1,6,3,6,"['2025-11-05', '2025-11-19']"
SDM College of Medical Sciences and Hospital Blood Bank,15.417904,75.050162,2,3,5,2,3,3,5,1,"['2025-11-02', '2025-11-20']"
Karnataka Medical College Hospital Blood Bank,15.3669,75.128266,3,2,3,1,3,3,4,3,"['2025-10-31', '2025-11-22']"
M. R. Diagnostic Research Centre and Blood Bank,15.364705,75.123954,3,2,3,6,4,4,3,2,"['2025-10-29', '2025-11-15']"
The Karnataka Cancer Therapy and Research Institute Smt. Valbai N. Dharamsey Blood Bank,15.36472,75.123954,1,5,3,5,2,5,5,3,"['2025-10-31', '2025-11-15']"
Jeevanavar Blood Bank,15.353643,75.130587,4,3,2,1,2,1,6,4,"['2025-10-26', '2025-11-15']"
Hubli Lions Blood Bank,15.354562,75.135566,3,4,3,5,1,4,6,2,"['2025-10-27', '2025-11-12']"
Sha Damji Jadavji Chheda Memorial Rashtrotthana Blood Bank,15.3534025,75.1348707,1,2,4,2,4,2,1,4,"['2025-11-06', '2025-11-13']"
Life Line 24x7 Blood Bank,15.35144,75.117758,2,6,2,5,3,1,3,2,"['2025-11-02', '2025-11-12']"
M/s. Suchirayu Healthcare Limited Blood Bank,15.3526453,75.1155103,2,4,3,5,5,6,6,1,"['2025-11-01', '2025-11-16']"
IMA Blood Bank,15.436162,75.637616,6,4,4,5,4,4,6,3,"['2025-10-29', '2025-11-09']"
Gadag Institute of Medical Sciences & District Hospital Blood Bank,15.380961,75.600802,1,4,3,5,5,2,4,3,"['2025-10-29', '2025-11-09']"
Sri. Chamarajendra District Hospital Blood Bank,13.004537,76.103797,5,5,5,4,3,2,6,1,"['2025-11-08', '2025-11-18']"
Jeeva Raksha Blood Bank,13.0032624,76.0975902,5,3,5,1,1,6,4,6,"['2025-10-25', '2025-11-20']"
Manjunath Orthopaedic and Trauma Centre Hospital Blood Bank,13.0080708,76.1016262,3,2,6,1,4,4,3,4,"['2025-10-26', '2025-11-13']"
District Hospital Blood Bank Haveri,14.785408,75.403059,5,5,4,6,4,1,6,6,"['2025-10-25', '2025-11-10']"
HKES Blood Bank Organisation,17.328385,76.844483,3,1,4,4,2,2,3,1,"['2025-11-05', '2025-11-19']"
District Hospital Blood Bank,17.328685,76.840743,4,5,1,4,6,3,3,2,"['2025-11-05', '2025-11-15']"
Health Care Blood Bank,17.3353831,76.8361997,2,1,6,5,5,5,4,3,"['2025-11-03', '2025-11-09']"
Khaja Banda Nawaz Teaching and General Hospital Blood Bank,17.352728,76.853237,3,1,6,6,3,5,3,5,"['2025-10-27', '2025-11-22']"
M/s. Vaatsalya Life Hospitals Navajeeva Blood Bank,17.328477,76.847911,4,3,1,5,4,2,3,2,"['2025-11-06', '2025-11-21']"
M/s. Medicare Multispeciality Hospital Blood Bank,17.337775,76.844343,4,4,3,3,6,6,5,6,"['2025-10-26', '2025-11-20']"
District Hospital Blood Bank,12.418764,75.742555,1,1,1,4,1,3,1,2,"['2025-10-28', '2025-11-10']"
Sambrama Institute of Medical Sciences & Research Hospital Blood Bank,12.996519,78.240449,3,1,2,2,5,4,6,2,"['2025-11-04', '2025-11-19']"
General Hospital Robertson Peth Blood Bank,12.953386,78.271285,1,2,2,5,1,5,2,4,"['2025-10-31', '2025-11-14']"
S.N.R. District Hospital Blood Bank,13.129255,78.13435,6,5,4,4,5,5,2,2,"['2025-11-04', '2025-11-20']"
BEML Medical Centre Bharat Earth Movers Limited Blood Bank,12.983949,78.237201,1,4,1,5,6,5,3,5,"['2025-10-28', '2025-11-20']"
R. L. Jalappa Hospital and Research Centre Blood Bank,13.131674,78.173061,2,2,6,2,1,2,6,6,"['2025-10-29', '2025-11-11']"
Gopi Blood Bank,15.4345687,76.5018267,1,6,5,4,1,3,4,4,"['2025-10-29', '2025-11-18']"
Indian Red Cross Koppal District Branch Blood Bank,15.419164,76.138152,2,5,3,4,1,1,3,2,"['2025-10-28', '2025-11-18']"
Adichunchanagiri Hospital and Research Centre Blood Bank,12.966319,76.721027,6,1,6,2,2,2,5,6,"['2025-11-08', '2025-11-23']"
District Hospital Blood Bank Mandya,12.4279555,76.7010341,5,4,2,5,1,5,2,1,"['2025-10-30', '2025-11-22']"
MDC Voluntary Blood Bank,12.52027,76.899169,2,4,4,5,5,4,5,3,"['2025-11-07', '2025-11-16']"
Vikarm Hospital Blood Bank,12.525089,76.8982,4,3,2,1,1,4,3,5,"['2025-10-28', '2025-11-17']"
Holdsworth Memorial Mission Hospital Blood Bank,12.316416,76.650574,2,3,5,4,6,2,4,3,"['2025-11-02', '2025-11-19']"
Bassappa Memorial Hospital Blood Bank,12.320811,76.62005,6,3,6,6,4,5,4,3,"['2025-11-02', '2025-11-15']"
B. G. S. Apollo Hospital Blood Bank,12.29573,76.632061,3,4,2,5,2,6,2,1,"['2025-11-05', '2025-11-20']"
Vikram Hospital and Heart Centre Blood Bank,12.32354,76.638119,3,3,6,4,5,4,3,5,"['2025-10-28', '2025-11-12']"
Rotary Mysore Chandrakala Hospital Blood Bank,12.325868,76.619519,5,6,5,5,2,6,1,3,"['2025-10-27', '2025-11-16']"
Jeevadhara Voluntary Blood Bank ,12.315731,76.65103,4,5,2,2,4,2,6,4,"['2025-11-06', '2025-11-18']"
Nuveen Medical Relief and research Foundation Blood Bank,12.3410708,76.6531589,4,2,4,6,2,1,3,4,"['2025-11-04', '2025-11-18']"
Cauvery Hospital Blood Bank,12.30509,76.695813,6,2,3,4,2,1,4,2,"['2025-11-06', '2025-11-19']"
Kamakshi Hospital Blood Bank,12.299739,76.623762,5,3,5,4,3,5,6,4,"['2025-11-04', '2025-11-12']"
Narayana Hrudayalaya - Surgical Hospital Private Limited Blood Bank,12.345086,76.673031,6,1,5,6,4,2,3,1,"['2025-10-28', '2025-11-19']"
J. S. S. Hospital Blood Bank,12.29521,76.65607,2,5,5,1,2,1,5,5,"['2025-10-25', '2025-11-15']"
K. R. Hospital Blood Bank,12.313101,76.649573,5,6,3,4,3,6,2,6,"['2025-10-28', '2025-11-18']"
Railway Hospital Blood Bank,12.325712,76.635623,2,2,6,3,1,2,1,6,"['2025-10-26', '2025-11-21']"
Hutti Gold Hospital Blood Bank,16.196412,76.653027,5,1,4,4,1,4,2,2,"['2025-11-04', '2025-11-20']"
Indian Medical Association Blood Bank,12.960041,77.57296,3,5,1,2,4,1,3,1,"['2025-11-03', '2025-11-17']"
Navodaya Medical College Hospital and Research Centre Blood Bank,16.184331,77.368042,5,2,2,6,4,1,3,3,"['2025-10-30', '2025-11-15']"
Raichur Institute of Medical Sciences Teaching Hospital (RIMS) Blood Bank,16.229892,77.35936,2,6,6,2,6,4,5,4,"['2025-11-03', '2025-11-14']"
Sri Shakti Blood Bank,15.7687772,76.7638445,5,2,6,5,4,6,4,1,"['2025-11-07', '2025-11-18']"
M/S Indian Red Cross Society,12.5418511,77.3404064,4,1,2,5,4,4,2,6,"['2025-11-03', '2025-11-13']"
Jeevadhara Blood Bank,13.844738,75.710033,6,6,6,2,2,2,1,1,"['2025-11-04', '2025-11-11']"
VISL Hospital Blood Bank,13.83034,75.690275,6,5,5,6,2,6,2,1,"['2025-10-30', '2025-11-14']"
McGann Hospital Blood Bank,13.935689,75.562968,3,2,2,1,4,6,2,1,"['2025-10-31', '2025-11-22']"
Shimoga Mid Town Rotary Charity Foundation Blood Bank,13.94626,75.57832,5,6,1,6,3,4,3,5,"['2025-10-31', '2025-11-15']"
Subbaiah Medical College Blood Bank,13.932932,75.617172,3,3,3,1,2,5,3,5,"['2025-10-27', '2025-11-16']"
M/s. Sahyadri Narayana Multispeciality Hospital Blood Bank,13.908068,75.560375,4,5,5,2,2,6,6,5,"['2025-11-05', '2025-11-11']"
Red Cross Sanjeevini Blood Bank,13.933868,75.57183,1,1,2,4,1,2,3,4,"['2025-10-31', '2025-11-17']"
Sri Sidhartha Medical College Blood Bank,13.346024,77.057009,5,6,5,5,5,4,5,6,"['2025-11-06', '2025-11-19']"
District Hospital Blood Bank Tumkur,13.339661,77.098414,3,3,4,5,5,5,3,1,"['2025-11-08', '2025-11-10']"
J.C. Voluntary Blood Bank,13.337779,77.11681,6,2,5,4,1,6,5,6,"['2025-10-28', '2025-11-15']"
Vijaya Hospital Blood Bank,13.332531,77.096051,2,2,2,2,5,6,1,1,"['2025-10-30', '2025-11-23']"
Rotary Tumkur Central Belli Blood Bank,13.3415593,77.1031786,6,3,4,3,3,2,4,3,"['2025-11-04', '2025-11-15']"
Sri Shridevi Charitable Trust - Sreedevi Institute of Medical Sciences & Research Hospital Blood Bank,13.376281,77.096987,3,2,5,6,5,6,2,1,"['2025-11-08', '2025-11-09']"
Kasturba Hospital Blood Bank,13.353846,74.789057,3,1,5,1,3,5,1,5,"['2025-11-07', '2025-11-12']"
District Hospital Blood Bank Udupi,13.334045,74.742105,4,6,6,5,3,2,5,3,"['2025-10-29', '2025-11-19']"
K. L. E. Society Blood Bank,14.661796,74.309805,1,1,6,3,1,2,5,3,"['2025-10-31', '2025-11-22']"
District Hospital Blood Bank Karwar,14.817283,74.12968,2,5,1,5,6,4,3,5,"['2025-11-02', '2025-11-11']"
Pandit General Hospital Blood Bank,14.32773,74.491531,3,5,6,1,3,5,2,5,"['2025-10-30', '2025-11-21']"
The Uttara Kannada Blood Bank and Health Services Society,14.4292776,74.4024452,4,5,1,2,1,1,4,3,"['2025-10-25', '2025-11-10']"
Shripad Hegde Kadave Institute of Medical Sciences Blood Bank,14.632385,74.848338,4,6,6,6,3,6,3,5,"['2025-10-26', '2025-11-19']"
M/s. Indian Red Cross Society Blood Bank Yadgir,16.752789,77.138698,1,4,5,2,2,5,4,2,"['2025-10-28', '2025-11-12']"
K. V. M. Hospital Blood Bank,9.667112,76.339569,1,5,4,2,2,6,5,3,"['2025-10-31', '2025-11-20']"
